{
  "101": {
    "id": "101",
    "name": "Van Cortlandt Park-242 St",
    "lat": 40.889248,
    "lon": -73.898583,
    "lines": ["1"],
    "northStopId": "101N",
    "southStopId": "101S",
    "transfers": [],
    "ada": false,
    "borough": "bronx"
  },
  "103": {
    "id": "103",
    "name": "238 St",
    "lat": 40.884667,
    "lon": -73.90087,
    "lines": ["1"],
    "northStopId": "103N",
    "southStopId": "103S",
    "transfers": [],
    "ada": false,
    "borough": "bronx"
  },
  "104": {
    "id": "104",
    "name": "231 St",
    "lat": 40.878856,
    "lon": -73.904834,
    "lines": ["1"],
    "northStopId": "104N",
    "southStopId": "104S",
    "transfers": [],
    "ada": false,
    "borough": "bronx"
  },
  "106": {
    "id": "106",
    "name": "Marble Hill-225 St",
    "lat": 40.874561,
    "lon": -73.909831,
    "lines": ["1"],
    "northStopId": "106N",
    "southStopId": "106S",
    "transfers": [],
    "ada": false,
    "borough": "bronx"
  },
  "107": {
    "id": "107",
    "name": "215 St",
    "lat": 40.869444,
    "lon": -73.915279,
    "lines": ["1"],
    "northStopId": "107N",
    "southStopId": "107S",
    "transfers": [],
    "ada": false,
    "borough": "manhattan"
  },
  "108": {
    "id": "108",
    "name": "207 St",
    "lat": 40.864621,
    "lon": -73.918822,
    "lines": ["1"],
    "northStopId": "108N",
    "southStopId": "108S",
    "transfers": [],
    "ada": false,
    "borough": "manhattan"
  },
  "109": {
    "id": "109",
    "name": "Dyckman St",
    "lat": 40.860531,
    "lon": -73.925536,
    "lines": ["1"],
    "northStopId": "109N",
    "southStopId": "109S",
    "transfers": [],
    "ada": true,
    "borough": "manhattan",
    "complex": "C001"
  },
  "110": {
    "id": "110",
    "name": "191 St",
    "lat": 40.855225,
    "lon": -73.929412,
    "lines": ["1"],
    "northStopId": "110N",
    "southStopId": "110S",
    "transfers": [],
    "ada": false,
    "borough": "manhattan"
  },
  "111": {
    "id": "111",
    "name": "181 St",
    "lat": 40.849505,
    "lon": -73.933596,
    "lines": ["1"],
    "northStopId": "111N",
    "southStopId": "111S",
    "transfers": [],
    "ada": true,
    "borough": "manhattan",
    "complex": "C002"
  },
  "112": {
    "id": "112",
    "name": "168 St-Washington Hts",
    "lat": 40.840556,
    "lon": -73.940133,
    "lines": ["1"],
    "northStopId": "112N",
    "southStopId": "112S",
    "transfers": [
      {
        "toStationId": "A09",
        "toLines": ["A", "C"],
        "walkingSeconds": 180,
        "accessible": false
      }
    ],
    "ada": true,
    "borough": "manhattan"
  },
  "113": {
    "id": "113",
    "name": "157 St",
    "lat": 40.834041,
    "lon": -73.94489,
    "lines": ["1"],
    "northStopId": "113N",
    "southStopId": "113S",
    "transfers": [],
    "ada": false,
    "borough": "manhattan"
  },
  "114": {
    "id": "114",
    "name": "145 St",
    "lat": 40.826551,
    "lon": -73.95036,
    "lines": ["1"],
    "northStopId": "114N",
    "southStopId": "114S",
    "transfers": [],
    "ada": true,
    "borough": "manhattan",
    "complex": "C003"
  },
  "115": {
    "id": "115",
    "name": "137 St-City College",
    "lat": 40.822008,
    "lon": -73.953676,
    "lines": ["1"],
    "northStopId": "115N",
    "southStopId": "115S",
    "transfers": [],
    "ada": true,
    "borough": "manhattan"
  },
  "116": {
    "id": "116",
    "name": "125 St",
    "lat": 40.815581,
    "lon": -73.958372,
    "lines": ["1"],
    "northStopId": "116N",
    "southStopId": "116S",
    "transfers": [],
    "ada": true,
    "borough": "manhattan",
    "complex": "C004"
  },
  "117": {
    "id": "117",
    "name": "116 St-Columbia University",
    "lat": 40.807722,
    "lon": -73.96411,
    "lines": ["1"],
    "northStopId": "117N",
    "southStopId": "117S",
    "transfers": [],
    "ada": true,
    "borough": "manhattan"
  },
  "118": {
    "id": "118",
    "name": "Cathedral Pkwy (110 St)",
    "lat": 40.803967,
    "lon": -73.966847,
    "lines": ["1"],
    "northStopId": "118N",
    "southStopId": "118S",
    "transfers": [],
    "ada": true,
    "borough": "manhattan",
    "complex": "C005"
  },
  "119": {
    "id": "119",
    "name": "103 St",
    "lat": 40.799446,
    "lon": -73.968379,
    "lines": ["1"],
    "northStopId": "119N",
    "southStopId": "119S",
    "transfers": [],
    "ada": true,
    "borough": "manhattan",
    "complex": "C006"
  },
  "120": {
    "id": "120",
    "name": "96 St",
    "lat": 40.793919,
    "lon": -73.972323,
    "lines": ["1", "2", "3"],
    "northStopId": "120N",
    "southStopId": "120S",
    "transfers": [],
    "ada": true,
    "borough": "manhattan",
    "complex": "C007"
  },
  "121": {
    "id": "121",
    "name": "86 St",
    "lat": 40.788644,
    "lon": -73.976218,
    "lines": ["1", "2"],
    "northStopId": "121N",
    "southStopId": "121S",
    "transfers": [],
    "ada": true,
    "borough": "manhattan",
    "complex": "C008"
  },
  "122": {
    "id": "122",
    "name": "79 St",
    "lat": 40.783934,
    "lon": -73.979917,
    "lines": ["1", "2"],
    "northStopId": "122N",
    "southStopId": "122S",
    "transfers": [],
    "ada": false,
    "borough": "manhattan",
    "complex": "C009"
  },
  "123": {
    "id": "123",
    "name": "72 St",
    "lat": 40.778453,
    "lon": -73.98197,
    "lines": ["1", "2", "3"],
    "northStopId": "123N",
    "southStopId": "123S",
    "transfers": [],
    "ada": true,
    "borough": "manhattan",
    "complex": "C010"
  },
  "124": {
    "id": "124",
    "name": "66 St-Lincoln Center",
    "lat": 40.77344,
    "lon": -73.982209,
    "lines": ["1", "2"],
    "northStopId": "124N",
    "southStopId": "124S",
    "transfers": [],
    "ada": false,
    "borough": "manhattan"
  },
  "125": {
    "id": "125",
    "name": "59 St-Columbus Circle",
    "lat": 40.768247,
    "lon": -73.981929,
    "lines": ["1", "2"],
    "northStopId": "125N",
    "southStopId": "125S",
    "transfers": [
      {
        "toStationId": "A24",
        "toLines": ["A", "B", "C", "D"],
        "walkingSeconds": 180,
        "accessible": false
      }
    ],
    "ada": true,
    "borough": "manhattan",
    "complex": "C011"
  },
  "126": {
    "id": "126",
    "name": "50 St",
    "lat": 40.761728,
    "lon": -73.983849,
    "lines": ["1", "2"],
    "northStopId": "126N",
    "southStopId": "126S",
    "transfers": [],
    "ada": true,
    "borough": "manhattan",
    "complex": "C012"
  },
  "127": {
    "id": "127",
    "name": "Times Sq-42 St",
    "lat": 40.75529,
    "lon": -73.987495,
    "lines": ["1", "2", "3"],
    "northStopId": "127N",
    "southStopId": "127S",
    "transfers": [
      {
        "toStationId": "725",
        "toLines": ["7", "7X"],
        "walkingSeconds": 180,
        "accessible": false
      },
      {
        "toStationId": "902",
        "toLines": ["GS"],
        "walkingSeconds": 180,
        "accessible": false
      },
      {
        "toStationId": "A27",
        "toLines": ["A", "C", "E"],
        "walkingSeconds": 300,
        "accessible": false
      },
      {
        "toStationId": "R16",
        "toLines": ["N", "Q", "R", "W"],
        "walkingSeconds": 180,
        "accessible": false
      }
    ],
    "ada": true,
    "borough": "manhattan",
    "complex": "C013"
  },
  "128": {
    "id": "128",
    "name": "34 St-Penn Station",
    "lat": 40.750373,
    "lon": -73.991057,
    "lines": ["1", "2", "3"],
    "northStopId": "128N",
    "southStopId": "128S",
    "transfers": [],
    "ada": true,
    "borough": "manhattan",
    "complex": "C014"
  },
  "129": {
    "id": "129",
    "name": "28 St",
    "lat": 40.747215,
    "lon": -73.993365,
    "lines": ["1", "2"],
    "northStopId": "129N",
    "southStopId": "129S",
    "transfers": [],
    "ada": false,
    "borough": "manhattan",
    "complex": "C015"
  },
  "130": {
    "id": "130",
    "name": "23 St",
    "lat": 40.744081,
    "lon": -73.995657,
    "lines": ["1", "2"],
    "northStopId": "130N",
    "southStopId": "130S",
    "transfers": [],
    "ada": true,
    "borough": "manhattan",
    "complex": "C016"
  },
  "131": {
    "id": "131",
    "name": "18 St",
    "lat": 40.74104,
    "lon": -73.997871,
    "lines": ["1", "2"],
    "northStopId": "131N",
    "southStopId": "131S",
    "transfers": [],
    "ada": true,
    "borough": "manhattan"
  },
  "132": {
    "id": "132",
    "name": "14 St",
    "lat": 40.737826,
    "lon": -74.000201,
    "lines": ["1", "2", "3"],
    "northStopId": "132N",
    "southStopId": "132S",
    "transfers": [
      {
        "toStationId": "D19",
        "toLines": ["F", "M", "Q"],
        "walkingSeconds": 300,
        "accessible": false
      },
      {
        "toStationId": "L02",
        "toLines": ["L"],
        "walkingSeconds": 180,
        "accessible": false
      }
    ],
    "ada": true,
    "borough": "manhattan",
    "complex": "C017"
  },
  "133": {
    "id": "133",
    "name": "Christopher St-Stonewall",
    "lat": 40.733422,
    "lon": -74.002906,
    "lines": ["1", "2"],
    "northStopId": "133N",
    "southStopId": "133S",
    "transfers": [],
    "ada": false,
    "borough": "manhattan"
  },
  "134": {
    "id": "134",
    "name": "Houston St",
    "lat": 40.728251,
    "lon": -74.005367,
    "lines": ["1", "2"],
    "northStopId": "134N",
    "southStopId": "134S",
    "transfers": [],
    "ada": false,
    "borough": "manhattan"
  },
  "135": {
    "id": "135",
    "name": "Canal St",
    "lat": 40.722854,
    "lon": -74.006277,
    "lines": ["1", "2"],
    "northStopId": "135N",
    "southStopId": "135S",
    "transfers": [],
    "ada": true,
    "borough": "manhattan",
    "complex": "C018"
  },
  "136": {
    "id": "136",
    "name": "Franklin St",
    "lat": 40.719318,
    "lon": -74.006886,
    "lines": ["1", "2"],
    "northStopId": "136N",
    "southStopId": "136S",
    "transfers": [],
    "ada": false,
    "borough": "manhattan"
  },
  "137": {
    "id": "137",
    "name": "Chambers St",
    "lat": 40.715478,
    "lon": -74.009266,
    "lines": ["1", "2", "3"],
    "northStopId": "137N",
    "southStopId": "137S",
    "transfers": [],
    "ada": true,
    "borough": "manhattan",
    "complex": "C019"
  },
  "138": {
    "id": "138",
    "name": "WTC Cortlandt",
    "lat": 40.711835,
    "lon": -74.012188,
    "lines": ["1"],
    "northStopId": "138N",
    "southStopId": "138S",
    "transfers": [],
    "ada": false,
    "borough": "manhattan"
  },
  "139": {
    "id": "139",
    "name": "Rector St",
    "lat": 40.707513,
    "lon": -74.013783,
    "lines": ["1"],
    "northStopId": "139N",
    "southStopId": "139S",
    "transfers": [],
    "ada": true,
    "borough": "manhattan",
    "complex": "C020"
  },
  "142": {
    "id": "142",
    "name": "South Ferry",
    "lat": 40.702068,
    "lon": -74.013664,
    "lines": ["1"],
    "northStopId": "142N",
    "southStopId": "142S",
    "transfers": [],
    "ada": true,
    "borough": "manhattan"
  },
  "201": {
    "id": "201",
    "name": "Wakefield-241 St",
    "lat": 40.903125,
    "lon": -73.85062,
    "lines": ["2"],
    "northStopId": "201N",
    "southStopId": "201S",
    "transfers": [],
    "ada": false,
    "borough": "bronx"
  },
  "204": {
    "id": "204",
    "name": "Nereid Av",
    "lat": 40.898379,
    "lon": -73.854376,
    "lines": ["2", "5"],
    "northStopId": "204N",
    "southStopId": "204S",
    "transfers": [],
    "ada": false,
    "borough": "bronx"
  },
  "205": {
    "id": "205",
    "name": "233 St",
    "lat": 40.893193,
    "lon": -73.857473,
    "lines": ["2", "5"],
    "northStopId": "205N",
    "southStopId": "205S",
    "transfers": [],
    "ada": false,
    "borough": "bronx"
  },
  "206": {
    "id": "206",
    "name": "225 St",
    "lat": 40.888022,
    "lon": -73.860341,
    "lines": ["2", "5"],
    "northStopId": "206N",
    "southStopId": "206S",
    "transfers": [],
    "ada": false,
    "borough": "bronx"
  },
  "207": {
    "id": "207",
    "name": "219 St",
    "lat": 40.883895,
    "lon": -73.862633,
    "lines": ["2", "5"],
    "northStopId": "207N",
    "southStopId": "207S",
    "transfers": [],
    "ada": false,
    "borough": "bronx"
  },
  "208": {
    "id": "208",
    "name": "Gun Hill Rd",
    "lat": 40.87785,
    "lon": -73.866256,
    "lines": ["2", "5"],
    "northStopId": "208N",
    "southStopId": "208S",
    "transfers": [],
    "ada": false,
    "borough": "bronx",
    "complex": "C021"
  },
  "209": {
    "id": "209",
    "name": "Burke Av",
    "lat": 40.871356,
    "lon": -73.867164,
    "lines": ["2", "5"],
    "northStopId": "209N",
    "southStopId": "209S",
    "transfers": [],
    "ada": false,
    "borough": "bronx"
  },
  "210": {
    "id": "210",
    "name": "Allerton Av",
    "lat": 40.865462,
    "lon": -73.867352,
    "lines": ["2", "5"],
    "northStopId": "210N",
    "southStopId": "210S",
    "transfers": [],
    "ada": false,
    "borough": "bronx"
  },
  "211": {
    "id": "211",
    "name": "Pelham Pkwy",
    "lat": 40.857192,
    "lon": -73.867615,
    "lines": ["2", "5"],
    "northStopId": "211N",
    "southStopId": "211S",
    "transfers": [],
    "ada": false,
    "borough": "bronx",
    "complex": "C022"
  },
  "212": {
    "id": "212",
    "name": "Bronx Park East",
    "lat": 40.848828,
    "lon": -73.868457,
    "lines": ["2", "5"],
    "northStopId": "212N",
    "southStopId": "212S",
    "transfers": [],
    "ada": false,
    "borough": "bronx"
  },
  "213": {
    "id": "213",
    "name": "E 180 St",
    "lat": 40.841894,
    "lon": -73.873488,
    "lines": ["2", "5"],
    "northStopId": "213N",
    "southStopId": "213S",
    "transfers": [],
    "ada": false,
    "borough": "bronx"
  },
  "214": {
    "id": "214",
    "name": "West Farms Sq-E Tremont Av",
    "lat": 40.840295,
    "lon": -73.880049,
    "lines": ["2", "5"],
    "northStopId": "214N",
    "southStopId": "214S",
    "transfers": [],
    "ada": false,
    "borough": "bronx"
  },
  "215": {
    "id": "215",
    "name": "174 St",
    "lat": 40.837288,
    "lon": -73.887734,
    "lines": ["2", "5"],
    "northStopId": "215N",
    "southStopId": "215S",
    "transfers": [],
    "ada": false,
    "borough": "manhattan"
  },
  "216": {
    "id": "216",
    "name": "Freeman St",
    "lat": 40.829993,
    "lon": -73.891865,
    "lines": ["2", "5"],
    "northStopId": "216N",
    "southStopId": "216S",
    "transfers": [],
    "ada": false,
    "borough": "bronx"
  },
  "217": {
    "id": "217",
    "name": "Simpson St",
    "lat": 40.824073,
    "lon": -73.893064,
    "lines": ["2", "5"],
    "northStopId": "217N",
    "southStopId": "217S",
    "transfers": [],
    "ada": false,
    "borough": "bronx"
  },
  "218": {
    "id": "218",
    "name": "Intervale Av",
    "lat": 40.822181,
    "lon": -73.896736,
    "lines": ["2", "5"],
    "northStopId": "218N",
    "southStopId": "218S",
    "transfers": [],
    "ada": false,
    "borough": "bronx"
  },
  "219": {
    "id": "219",
    "name": "Prospect Av",
    "lat": 40.819585,
    "lon": -73.90177,
    "lines": ["2", "5"],
    "northStopId": "219N",
    "southStopId": "219S",
    "transfers": [],
    "ada": false,
    "borough": "bronx",
    "complex": "C023"
  },
  "220": {
    "id": "220",
    "name": "Jackson Av",
    "lat": 40.81649,
    "lon": -73.907807,
    "lines": ["2", "5"],
    "northStopId": "220N",
    "southStopId": "220S",
    "transfers": [],
    "ada": false,
    "borough": "bronx"
  },
  "221": {
    "id": "221",
    "name": "3 Av-149 St",
    "lat": 40.816109,
    "lon": -73.917757,
    "lines": ["2", "5"],
    "northStopId": "221N",
    "southStopId": "221S",
    "transfers": [],
    "ada": true,
    "borough": "bronx"
  },
  "222": {
    "id": "222",
    "name": "149 St-Grand Concourse",
    "lat": 40.81841,
    "lon": -73.926718,
    "lines": ["2", "5"],
    "northStopId": "222N",
    "southStopId": "222S",
    "transfers": [
      {
        "toStationId": "415",
        "toLines": ["4", "5"],
        "walkingSeconds": 180,
        "accessible": false
      }
    ],
    "ada": true,
    "borough": "bronx",
    "complex": "C024"
  },
  "224": {
    "id": "224",
    "name": "135 St",
    "lat": 40.814229,
    "lon": -73.94077,
    "lines": ["2", "3"],
    "northStopId": "224N",
    "southStopId": "224S",
    "transfers": [],
    "ada": false,
    "borough": "manhattan",
    "complex": "C025"
  },
  "225": {
    "id": "225",
    "name": "125 St",
    "lat": 40.807754,
    "lon": -73.945495,
    "lines": ["2", "3"],
    "northStopId": "225N",
    "southStopId": "225S",
    "transfers": [],
    "ada": true,
    "borough": "manhattan",
    "complex": "C004"
  },
  "226": {
    "id": "226",
    "name": "116 St",
    "lat": 40.802098,
    "lon": -73.949625,
    "lines": ["2", "3"],
    "northStopId": "226N",
    "southStopId": "226S",
    "transfers": [],
    "ada": false,
    "borough": "manhattan",
    "complex": "C026"
  },
  "227": {
    "id": "227",
    "name": "110 St-Malcolm X Plaza",
    "lat": 40.799075,
    "lon": -73.951822,
    "lines": ["2", "3"],
    "northStopId": "227N",
    "southStopId": "227S",
    "transfers": [],
    "ada": false,
    "borough": "manhattan"
  },
  "228": {
    "id": "228",
    "name": "Park Place",
    "lat": 40.713051,
    "lon": -74.008811,
    "lines": ["2", "3"],
    "northStopId": "228N",
    "southStopId": "228S",
    "transfers": [
      {
        "toStationId": "A36",
        "toLines": ["A", "C"],
        "walkingSeconds": 180,
        "accessible": false
      },
      {
        "toStationId": "E01",
        "toLines": ["E"],
        "walkingSeconds": 180,
        "accessible": false
      },
      {
        "toStationId": "R25",
        "toLines": ["N", "R", "W"],
        "walkingSeconds": 420,
        "accessible": false
      }
    ],
    "ada": true,
    "borough": "manhattan"
  },
  "229": {
    "id": "229",
    "name": "Fulton St",
    "lat": 40.709416,
    "lon": -74.006571,
    "lines": ["2", "3"],
    "northStopId": "229N",
    "southStopId": "229S",
    "transfers": [
      {
        "toStationId": "418",
        "toLines": ["4", "5"],
        "walkingSeconds": 300,
        "accessible": false
      },
      {
        "toStationId": "A38",
        "toLines": ["A", "C"],
        "walkingSeconds": 180,
        "accessible": false
      },
      {
        "toStationId": "M22",
        "toLines": ["J", "Z"],
        "walkingSeconds": 300,
        "accessible": false
      }
    ],
    "ada": true,
    "borough": "brooklyn",
    "complex": "C027"
  },
  "230": {
    "id": "230",
    "name": "Wall St",
    "lat": 40.706821,
    "lon": -74.0091,
    "lines": ["2", "3"],
    "northStopId": "230N",
    "southStopId": "230S",
    "transfers": [],
    "ada": false,
    "borough": "manhattan",
    "complex": "C028"
  },
  "231": {
    "id": "231",
    "name": "Clark St",
    "lat": 40.697466,
    "lon": -73.993086,
    "lines": ["2", "3"],
    "northStopId": "231N",
    "southStopId": "231S",
    "transfers": [],
    "ada": false,
    "borough": "brooklyn"
  },
  "232": {
    "id": "232",
    "name": "Borough Hall",
    "lat": 40.693219,
    "lon": -73.989998,
    "lines": ["2", "3"],
    "northStopId": "232N",
    "southStopId": "232S",
    "transfers": [
      {
        "toStationId": "423",
        "toLines": ["4", "5"],
        "walkingSeconds": 300,
        "accessible": false
      },
      {
        "toStationId": "R28",
        "toLines": ["N", "R", "W"],
        "walkingSeconds": 180,
        "accessible": false
      }
    ],
    "ada": true,
    "borough": "brooklyn",
    "complex": "C029"
  },
  "233": {
    "id": "233",
    "name": "Hoyt St",
    "lat": 40.690545,
    "lon": -73.985065,
    "lines": ["2", "3"],
    "northStopId": "233N",
    "southStopId": "233S",
    "transfers": [],
    "ada": false,
    "borough": "brooklyn"
  },
  "234": {
    "id": "234",
    "name": "Nevins St",
    "lat": 40.688246,
    "lon": -73.980492,
    "lines": ["2", "3", "4", "5"],
    "northStopId": "234N",
    "southStopId": "234S",
    "transfers": [],
    "ada": true,
    "borough": "brooklyn"
  },
  "235": {
    "id": "235",
    "name": "Atlantic Av-Barclays Ctr",
    "lat": 40.684359,
    "lon": -73.977666,
    "lines": ["2", "3", "4", "5"],
    "northStopId": "235N",
    "southStopId": "235S",
    "transfers": [
      {
        "toStationId": "D24",
        "toLines": ["B", "Q"],
        "walkingSeconds": 180,
        "accessible": false
      },
      {
        "toStationId": "R31",
        "toLines": ["D", "N", "Q", "R", "W"],
        "walkingSeconds": 180,
        "accessible": false
      }
    ],
    "ada": true,
    "borough": "brooklyn",
    "complex": "C030"
  },
  "236": {
    "id": "236",
    "name": "Bergen St",
    "lat": 40.680829,
    "lon": -73.975098,
    "lines": ["2", "3", "4"],
    "northStopId": "236N",
    "southStopId": "236S",
    "transfers": [],
    "ada": false,
    "borough": "brooklyn",
    "complex": "C031"
  },
  "237": {
    "id": "237",
    "name": "Grand Army Plaza",
    "lat": 40.675235,
    "lon": -73.971046,
    "lines": ["2", "3", "4"],
    "northStopId": "237N",
    "southStopId": "237S",
    "transfers": [],
    "ada": false,
    "borough": "brooklyn"
  },
  "238": {
    "id": "238",
    "name": "Eastern Pkwy-Brooklyn Museum",
    "lat": 40.671987,
    "lon": -73.964375,
    "lines": ["2", "3", "4"],
    "northStopId": "238N",
    "southStopId": "238S",
    "transfers": [],
    "ada": false,
    "borough": "brooklyn"
  },
  "239": {
    "id": "239",
    "name": "Franklin Av-Medgar Evers College",
    "lat": 40.670682,
    "lon": -73.958131,
    "lines": ["2", "3", "4", "5"],
    "northStopId": "239N",
    "southStopId": "239S",
    "transfers": [
      {
        "toStationId": "S04",
        "toLines": ["FS"],
        "walkingSeconds": 180,
        "accessible": false
      }
    ],
    "ada": false,
    "borough": "brooklyn"
  },
  "241": {
    "id": "241",
    "name": "President St-Medgar Evers College",
    "lat": 40.667883,
    "lon": -73.950683,
    "lines": ["2", "5"],
    "northStopId": "241N",
    "southStopId": "241S",
    "transfers": [],
    "ada": false,
    "borough": "brooklyn"
  },
  "242": {
    "id": "242",
    "name": "Sterling St",
    "lat": 40.662742,
    "lon": -73.95085,
    "lines": ["2", "5"],
    "northStopId": "242N",
    "southStopId": "242S",
    "transfers": [],
    "ada": false,
    "borough": "brooklyn"
  },
  "243": {
    "id": "243",
    "name": "Winthrop St",
    "lat": 40.656652,
    "lon": -73.9502,
    "lines": ["2", "5"],
    "northStopId": "243N",
    "southStopId": "243S",
    "transfers": [],
    "ada": false,
    "borough": "brooklyn"
  },
  "244": {
    "id": "244",
    "name": "Church Av",
    "lat": 40.650843,
    "lon": -73.949575,
    "lines": ["2", "5"],
    "northStopId": "244N",
    "southStopId": "244S",
    "transfers": [],
    "ada": true,
    "borough": "brooklyn",
    "complex": "C032"
  },
  "245": {
    "id": "245",
    "name": "Beverly Rd",
    "lat": 40.645098,
    "lon": -73.948959,
    "lines": ["2", "5"],
    "northStopId": "245N",
    "southStopId": "245S",
    "transfers": [],
    "ada": false,
    "borough": "brooklyn"
  },
  "246": {
    "id": "246",
    "name": "Newkirk Av-Little Haiti",
    "lat": 40.639967,
    "lon": -73.948411,
    "lines": ["2", "5"],
    "northStopId": "246N",
    "southStopId": "246S",
    "transfers": [],
    "ada": false,
    "borough": "brooklyn"
  },
  "247": {
    "id": "247",
    "name": "Flatbush Av-Brooklyn College",
    "lat": 40.632836,
    "lon": -73.947642,
    "lines": ["2", "5"],
    "northStopId": "247N",
    "southStopId": "247S",
    "transfers": [],
    "ada": false,
    "borough": "brooklyn"
  },
  "248": {
    "id": "248",
    "name": "Nostrand Av",
    "lat": 40.669847,
    "lon": -73.950466,
    "lines": ["2", "3", "4", "5"],
    "northStopId": "248N",
    "southStopId": "248S",
    "transfers": [],
    "ada": true,
    "borough": "brooklyn",
    "complex": "C033"
  },
  "249": {
    "id": "249",
    "name": "Kingston Av",
    "lat": 40.669399,
    "lon": -73.942161,
    "lines": ["2", "3", "4", "5"],
    "northStopId": "249N",
    "southStopId": "249S",
    "transfers": [],
    "ada": false,
    "borough": "brooklyn"
  },
  "250": {
    "id": "250",
    "name": "Crown Hts-Utica Av",
    "lat": 40.668897,
    "lon": -73.932942,
    "lines": ["2", "3", "4", "5"],
    "northStopId": "250N",
    "southStopId": "250S",
    "transfers": [],
    "ada": false,
    "borough": "brooklyn"
  },
  "251": {
    "id": "251",
    "name": "Sutter Av-Rutland Rd",
    "lat": 40.664717,
    "lon": -73.92261,
    "lines": ["2", "3", "4", "5"],
    "northStopId": "251N",
    "southStopId": "251S",
    "transfers": [],
    "ada": true,
    "borough": "brooklyn"
  },
  "252": {
    "id": "252",
    "name": "Saratoga Av",
    "lat": 40.661453,
    "lon": -73.916327,
    "lines": ["2", "3", "4", "5"],
    "northStopId": "252N",
    "southStopId": "252S",
    "transfers": [],
    "ada": false,
    "borough": "queens"
  },
  "253": {
    "id": "253",
    "name": "Rockaway Av",
    "lat": 40.662549,
    "lon": -73.908946,
    "lines": ["2", "3", "4", "5"],
    "northStopId": "253N",
    "southStopId": "253S",
    "transfers": [],
    "ada": true,
    "borough": "queens",
    "complex": "C034"
  },
  "254": {
    "id": "254",
    "name": "Junius St",
    "lat": 40.663515,
    "lon": -73.902447,
    "lines": ["2", "3", "4", "5"],
    "northStopId": "254N",
    "southStopId": "254S",
    "transfers": [
      {
        "toStationId": "L26",
        "toLines": ["L"],
        "walkingSeconds": 300,
        "accessible": false
      }
    ],
    "ada": true,
    "borough": "brooklyn"
  },
  "255": {
    "id": "255",
    "name": "Pennsylvania Av",
    "lat": 40.664635,
    "lon": -73.894895,
    "lines": ["2", "3", "4", "5"],
    "northStopId": "255N",
    "southStopId": "255S",
    "transfers": [],
    "ada": true,
    "borough": "brooklyn"
  },
  "256": {
    "id": "256",
    "name": "Van Siclen Av",
    "lat": 40.665449,
    "lon": -73.889395,
    "lines": ["2", "3", "4", "5"],
    "northStopId": "256N",
    "southStopId": "256S",
    "transfers": [],
    "ada": true,
    "borough": "brooklyn",
    "complex": "C035"
  },
  "257": {
    "id": "257",
    "name": "New Lots Av",
    "lat": 40.666235,
    "lon": -73.884079,
    "lines": ["2", "3", "4", "5"],
    "northStopId": "257N",
    "southStopId": "257S",
    "transfers": [],
    "ada": true,
    "borough": "brooklyn",
    "complex": "C036"
  },
  "301": {
    "id": "301",
    "name": "Harlem-148 St",
    "lat": 40.82388,
    "lon": -73.93647,
    "lines": ["3"],
    "northStopId": "301N",
    "southStopId": "301S",
    "transfers": [],
    "ada": false,
    "borough": "manhattan"
  },
  "302": {
    "id": "302",
    "name": "145 St",
    "lat": 40.820421,
    "lon": -73.936245,
    "lines": ["3"],
    "northStopId": "302N",
    "southStopId": "302S",
    "transfers": [],
    "ada": true,
    "borough": "manhattan",
    "complex": "C003"
  },
  "401": {
    "id": "401",
    "name": "Woodlawn",
    "lat": 40.886037,
    "lon": -73.878751,
    "lines": ["4"],
    "northStopId": "401N",
    "southStopId": "401S",
    "transfers": [],
    "ada": false,
    "borough": "bronx"
  },
  "402": {
    "id": "402",
    "name": "Mosholu Pkwy",
    "lat": 40.87975,
    "lon": -73.884655,
    "lines": ["4"],
    "northStopId": "402N",
    "southStopId": "402S",
    "transfers": [],
    "ada": false,
    "borough": "bronx"
  },
  "405": {
    "id": "405",
    "name": "Bedford Park Blvd-Lehman College",
    "lat": 40.873412,
    "lon": -73.890064,
    "lines": ["4"],
    "northStopId": "405N",
    "southStopId": "405S",
    "transfers": [],
    "ada": false,
    "borough": "bronx"
  },
  "406": {
    "id": "406",
    "name": "Kingsbridge Rd",
    "lat": 40.86776,
    "lon": -73.897174,
    "lines": ["4"],
    "northStopId": "406N",
    "southStopId": "406S",
    "transfers": [],
    "ada": false,
    "borough": "bronx",
    "complex": "C037"
  },
  "407": {
    "id": "407",
    "name": "Fordham Rd",
    "lat": 40.862803,
    "lon": -73.901034,
    "lines": ["4"],
    "northStopId": "407N",
    "southStopId": "407S",
    "transfers": [],
    "ada": true,
    "borough": "bronx",
    "complex": "C038"
  },
  "408": {
    "id": "408",
    "name": "183 St",
    "lat": 40.858407,
    "lon": -73.903879,
    "lines": ["4"],
    "northStopId": "408N",
    "southStopId": "408S",
    "transfers": [],
    "ada": false,
    "borough": "bronx"
  },
  "409": {
    "id": "409",
    "name": "Burnside Av",
    "lat": 40.853453,
    "lon": -73.907684,
    "lines": ["4"],
    "northStopId": "409N",
    "southStopId": "409S",
    "transfers": [],
    "ada": false,
    "borough": "bronx"
  },
  "410": {
    "id": "410",
    "name": "176 St",
    "lat": 40.84848,
    "lon": -73.911794,
    "lines": ["4"],
    "northStopId": "410N",
    "southStopId": "410S",
    "transfers": [],
    "ada": false,
    "borough": "manhattan"
  },
  "411": {
    "id": "411",
    "name": "Mt Eden Av",
    "lat": 40.844434,
    "lon": -73.914685,
    "lines": ["4"],
    "northStopId": "411N",
    "southStopId": "411S",
    "transfers": [],
    "ada": false,
    "borough": "bronx"
  },
  "412": {
    "id": "412",
    "name": "170 St",
    "lat": 40.840075,
    "lon": -73.917791,
    "lines": ["4"],
    "northStopId": "412N",
    "southStopId": "412S",
    "transfers": [],
    "ada": false,
    "borough": "manhattan",
    "complex": "C039"
  },
  "413": {
    "id": "413",
    "name": "167 St",
    "lat": 40.835537,
    "lon": -73.9214,
    "lines": ["4"],
    "northStopId": "413N",
    "southStopId": "413S",
    "transfers": [],
    "ada": true,
    "borough": "manhattan",
    "complex": "C040"
  },
  "414": {
    "id": "414",
    "name": "161 St-Yankee Stadium",
    "lat": 40.827994,
    "lon": -73.925831,
    "lines": ["4"],
    "northStopId": "414N",
    "southStopId": "414S",
    "transfers": [
      {
        "toStationId": "D11",
        "toLines": ["B", "D"],
        "walkingSeconds": 180,
        "accessible": false
      }
    ],
    "ada": true,
    "borough": "bronx",
    "complex": "C041"
  },
  "415": {
    "id": "415",
    "name": "149 St-Grand Concourse",
    "lat": 40.818375,
    "lon": -73.927351,
    "lines": ["4", "5"],
    "northStopId": "415N",
    "southStopId": "415S",
    "transfers": [
      {
        "toStationId": "222",
        "toLines": ["2", "5"],
        "walkingSeconds": 180,
        "accessible": false
      }
    ],
    "ada": true,
    "borough": "bronx",
    "complex": "C024"
  },
  "416": {
    "id": "416",
    "name": "138 St-Grand Concourse",
    "lat": 40.813224,
    "lon": -73.929849,
    "lines": ["4", "5"],
    "northStopId": "416N",
    "southStopId": "416S",
    "transfers": [],
    "ada": true,
    "borough": "bronx"
  },
  "418": {
    "id": "418",
    "name": "Fulton St",
    "lat": 40.710368,
    "lon": -74.009509,
    "lines": ["4", "5"],
    "northStopId": "418N",
    "southStopId": "418S",
    "transfers": [
      {
        "toStationId": "229",
        "toLines": ["2", "3"],
        "walkingSeconds": 300,
        "accessible": false
      },
      {
        "toStationId": "A38",
        "toLines": ["A", "C"],
        "walkingSeconds": 180,
        "accessible": false
      },
      {
        "toStationId": "M22",
        "toLines": ["J", "Z"],
        "walkingSeconds": 300,
        "accessible": false
      }
    ],
    "ada": true,
    "borough": "brooklyn",
    "complex": "C027"
  },
  "419": {
    "id": "419",
    "name": "Wall St",
    "lat": 40.707557,
    "lon": -74.011862,
    "lines": ["4", "5"],
    "northStopId": "419N",
    "southStopId": "419S",
    "transfers": [],
    "ada": false,
    "borough": "manhattan",
    "complex": "C028"
  },
  "420": {
    "id": "420",
    "name": "Bowling Green",
    "lat": 40.704817,
    "lon": -74.014065,
    "lines": ["4", "5"],
    "northStopId": "420N",
    "southStopId": "420S",
    "transfers": [],
    "ada": true,
    "borough": "manhattan"
  },
  "423": {
    "id": "423",
    "name": "Borough Hall",
    "lat": 40.692404,
    "lon": -73.990151,
    "lines": ["4", "5"],
    "northStopId": "423N",
    "southStopId": "423S",
    "transfers": [
      {
        "toStationId": "232",
        "toLines": ["2", "3"],
        "walkingSeconds": 300,
        "accessible": false
      },
      {
        "toStationId": "R28",
        "toLines": ["N", "R", "W"],
        "walkingSeconds": 180,
        "accessible": false
      }
    ],
    "ada": true,
    "borough": "brooklyn",
    "complex": "C029"
  },
  "501": {
    "id": "501",
    "name": "Eastchester-Dyre Av",
    "lat": 40.8883,
    "lon": -73.830834,
    "lines": ["5"],
    "northStopId": "501N",
    "southStopId": "501S",
    "transfers": [],
    "ada": false,
    "borough": "bronx"
  },
  "502": {
    "id": "502",
    "name": "Baychester Av",
    "lat": 40.878663,
    "lon": -73.838591,
    "lines": ["5"],
    "northStopId": "502N",
    "southStopId": "502S",
    "transfers": [],
    "ada": false,
    "borough": "bronx"
  },
  "503": {
    "id": "503",
    "name": "Gun Hill Rd",
    "lat": 40.869526,
    "lon": -73.846384,
    "lines": ["5"],
    "northStopId": "503N",
    "southStopId": "503S",
    "transfers": [],
    "ada": false,
    "borough": "bronx",
    "complex": "C021"
  },
  "504": {
    "id": "504",
    "name": "Pelham Pkwy",
    "lat": 40.858985,
    "lon": -73.855359,
    "lines": ["5"],
    "northStopId": "504N",
    "southStopId": "504S",
    "transfers": [],
    "ada": false,
    "borough": "bronx",
    "complex": "C022"
  },
  "505": {
    "id": "505",
    "name": "Morris Park",
    "lat": 40.854364,
    "lon": -73.860495,
    "lines": ["5"],
    "northStopId": "505N",
    "southStopId": "505S",
    "transfers": [],
    "ada": false,
    "borough": "bronx"
  },
  "601": {
    "id": "601",
    "name": "Pelham Bay Park",
    "lat": 40.852462,
    "lon": -73.828121,
    "lines": ["6", "6X"],
    "northStopId": "601N",
    "southStopId": "601S",
    "transfers": [],
    "ada": true,
    "borough": "bronx"
  },
  "602": {
    "id": "602",
    "name": "Buhre Av",
    "lat": 40.84681,
    "lon": -73.832569,
    "lines": ["6", "6X"],
    "northStopId": "602N",
    "southStopId": "602S",
    "transfers": [],
    "ada": false,
    "borough": "bronx"
  },
  "603": {
    "id": "603",
    "name": "Middletown Rd",
    "lat": 40.843863,
    "lon": -73.836322,
    "lines": ["6", "6X"],
    "northStopId": "603N",
    "southStopId": "603S",
    "transfers": [],
    "ada": false,
    "borough": "bronx"
  },
  "604": {
    "id": "604",
    "name": "Westchester Sq-E Tremont Av",
    "lat": 40.839892,
    "lon": -73.842952,
    "lines": ["6", "6X"],
    "northStopId": "604N",
    "southStopId": "604S",
    "transfers": [],
    "ada": false,
    "borough": "bronx"
  },
  "606": {
    "id": "606",
    "name": "Zerega Av",
    "lat": 40.836488,
    "lon": -73.847036,
    "lines": ["6", "6X"],
    "northStopId": "606N",
    "southStopId": "606S",
    "transfers": [],
    "ada": false,
    "borough": "bronx"
  },
  "607": {
    "id": "607",
    "name": "Castle Hill Av",
    "lat": 40.834255,
    "lon": -73.851222,
    "lines": ["6", "6X"],
    "northStopId": "607N",
    "southStopId": "607S",
    "transfers": [],
    "ada": false,
    "borough": "bronx"
  },
  "608": {
    "id": "608",
    "name": "Parkchester",
    "lat": 40.833226,
    "lon": -73.860816,
    "lines": ["6", "6X"],
    "northStopId": "608N",
    "southStopId": "608S",
    "transfers": [],
    "ada": false,
    "borough": "bronx"
  },
  "609": {
    "id": "609",
    "name": "St Lawrence Av",
    "lat": 40.831509,
    "lon": -73.867618,
    "lines": ["6"],
    "northStopId": "609N",
    "southStopId": "609S",
    "transfers": [],
    "ada": false,
    "borough": "bronx"
  },
  "610": {
    "id": "610",
    "name": "Morrison Av-Soundview",
    "lat": 40.829521,
    "lon": -73.874516,
    "lines": ["6"],
    "northStopId": "610N",
    "southStopId": "610S",
    "transfers": [],
    "ada": false,
    "borough": "bronx"
  },
  "611": {
    "id": "611",
    "name": "Elder Av",
    "lat": 40.828584,
    "lon": -73.879159,
    "lines": ["6"],
    "northStopId": "611N",
    "southStopId": "611S",
    "transfers": [],
    "ada": false,
    "borough": "bronx"
  },
  "612": {
    "id": "612",
    "name": "Whitlock Av",
    "lat": 40.826525,
    "lon": -73.886283,
    "lines": ["6"],
    "northStopId": "612N",
    "southStopId": "612S",
    "transfers": [],
    "ada": false,
    "borough": "bronx"
  },
  "613": {
    "id": "613",
    "name": "Hunts Point Av",
    "lat": 40.820948,
    "lon": -73.890549,
    "lines": ["6", "6X"],
    "northStopId": "613N",
    "southStopId": "613S",
    "transfers": [],
    "ada": false,
    "borough": "bronx"
  },
  "614": {
    "id": "614",
    "name": "Longwood Av",
    "lat": 40.816104,
    "lon": -73.896435,
    "lines": ["6"],
    "northStopId": "614N",
    "southStopId": "614S",
    "transfers": [],
    "ada": false,
    "borough": "bronx"
  },
  "615": {
    "id": "615",
    "name": "E 149 St",
    "lat": 40.812118,
    "lon": -73.904098,
    "lines": ["6"],
    "northStopId": "615N",
    "southStopId": "615S",
    "transfers": [],
    "ada": false,
    "borough": "bronx"
  },
  "616": {
    "id": "616",
    "name": "E 143 St-St Mary's St",
    "lat": 40.808719,
    "lon": -73.907657,
    "lines": ["6"],
    "northStopId": "616N",
    "southStopId": "616S",
    "transfers": [],
    "ada": false,
    "borough": "bronx"
  },
  "617": {
    "id": "617",
    "name": "Cypress Av",
    "lat": 40.805368,
    "lon": -73.914042,
    "lines": ["6"],
    "northStopId": "617N",
    "southStopId": "617S",
    "transfers": [],
    "ada": false,
    "borough": "bronx"
  },
  "618": {
    "id": "618",
    "name": "Brook Av",
    "lat": 40.807566,
    "lon": -73.91924,
    "lines": ["6"],
    "northStopId": "618N",
    "southStopId": "618S",
    "transfers": [],
    "ada": false,
    "borough": "bronx"
  },
  "619": {
    "id": "619",
    "name": "3 Av-138 St",
    "lat": 40.810476,
    "lon": -73.926138,
    "lines": ["6", "6X"],
    "northStopId": "619N",
    "southStopId": "619S",
    "transfers": [],
    "ada": false,
    "borough": "bronx"
  },
  "621": {
    "id": "621",
    "name": "125 St",
    "lat": 40.804138,
    "lon": -73.937594,
    "lines": ["4", "5", "6", "6X"],
    "northStopId": "621N",
    "southStopId": "621S",
    "transfers": [],
    "ada": true,
    "borough": "manhattan",
    "complex": "C004"
  },
  "622": {
    "id": "622",
    "name": "116 St",
    "lat": 40.798629,
    "lon": -73.941617,
    "lines": ["4", "6", "6X"],
    "northStopId": "622N",
    "southStopId": "622S",
    "transfers": [],
    "ada": false,
    "borough": "manhattan",
    "complex": "C026"
  },
  "623": {
    "id": "623",
    "name": "110 St",
    "lat": 40.79502,
    "lon": -73.94425,
    "lines": ["4", "6", "6X"],
    "northStopId": "623N",
    "southStopId": "623S",
    "transfers": [],
    "ada": true,
    "borough": "manhattan"
  },
  "624": {
    "id": "624",
    "name": "103 St",
    "lat": 40.7906,
    "lon": -73.947478,
    "lines": ["4", "6", "6X"],
    "northStopId": "624N",
    "southStopId": "624S",
    "transfers": [],
    "ada": true,
    "borough": "manhattan",
    "complex": "C006"
  },
  "625": {
    "id": "625",
    "name": "96 St",
    "lat": 40.785672,
    "lon": -73.95107,
    "lines": ["4", "6", "6X"],
    "northStopId": "625N",
    "southStopId": "625S",
    "transfers": [],
    "ada": true,
    "borough": "manhattan",
    "complex": "C007"
  },
  "626": {
    "id": "626",
    "name": "86 St",
    "lat": 40.779492,
    "lon": -73.955589,
    "lines": ["4", "5", "6", "6X"],
    "northStopId": "626N",
    "southStopId": "626S",
    "transfers": [],
    "ada": true,
    "borough": "manhattan",
    "complex": "C008"
  },
  "627": {
    "id": "627",
    "name": "77 St",
    "lat": 40.77362,
    "lon": -73.959874,
    "lines": ["4", "6", "6X"],
    "northStopId": "627N",
    "southStopId": "627S",
    "transfers": [],
    "ada": false,
    "borough": "manhattan",
    "complex": "C042"
  },
  "628": {
    "id": "628",
    "name": "68 St-Hunter College",
    "lat": 40.768141,
    "lon": -73.96387,
    "lines": ["4", "6", "6X"],
    "northStopId": "628N",
    "southStopId": "628S",
    "transfers": [],
    "ada": false,
    "borough": "manhattan"
  },
  "629": {
    "id": "629",
    "name": "59 St",
    "lat": 40.762526,
    "lon": -73.967967,
    "lines": ["4", "5", "6", "6X"],
    "northStopId": "629N",
    "southStopId": "629S",
    "transfers": [
      {
        "toStationId": "B08",
        "toLines": ["F", "M", "N", "Q", "R"],
        "walkingSeconds": 300,
        "accessible": false
      },
      {
        "toStationId": "R11",
        "toLines": ["N", "R", "W"],
        "walkingSeconds": 180,
        "accessible": false
      }
    ],
    "ada": false,
    "borough": "manhattan",
    "complex": "C043"
  },
  "630": {
    "id": "630",
    "name": "51 St",
    "lat": 40.757107,
    "lon": -73.97192,
    "lines": ["4", "6", "6X"],
    "northStopId": "630N",
    "southStopId": "630S",
    "transfers": [
      {
        "toStationId": "F11",
        "toLines": ["E", "F", "M"],
        "walkingSeconds": 180,
        "accessible": false
      }
    ],
    "ada": false,
    "borough": "manhattan",
    "complex": "lexington_53"
  },
  "631": {
    "id": "631",
    "name": "Grand Central-42 St",
    "lat": 40.751776,
    "lon": -73.976848,
    "lines": ["4", "5", "6", "6X"],
    "northStopId": "631N",
    "southStopId": "631S",
    "transfers": [
      {
        "toStationId": "723",
        "toLines": ["7", "7X"],
        "walkingSeconds": 180,
        "accessible": false
      },
      {
        "toStationId": "901",
        "toLines": ["GS"],
        "walkingSeconds": 180,
        "accessible": false
      }
    ],
    "ada": true,
    "borough": "manhattan",
    "complex": "C013"
  },
  "632": {
    "id": "632",
    "name": "33 St",
    "lat": 40.746081,
    "lon": -73.982076,
    "lines": ["4", "6", "6X"],
    "northStopId": "632N",
    "southStopId": "632S",
    "transfers": [],
    "ada": false,
    "borough": "manhattan"
  },
  "633": {
    "id": "633",
    "name": "28 St",
    "lat": 40.74307,
    "lon": -73.984264,
    "lines": ["4", "6", "6X"],
    "northStopId": "633N",
    "southStopId": "633S",
    "transfers": [],
    "ada": false,
    "borough": "manhattan",
    "complex": "C015"
  },
  "634": {
    "id": "634",
    "name": "23 St-Baruch College",
    "lat": 40.739864,
    "lon": -73.986599,
    "lines": ["4", "6", "6X"],
    "northStopId": "634N",
    "southStopId": "634S",
    "transfers": [],
    "ada": false,
    "borough": "manhattan"
  },
  "635": {
    "id": "635",
    "name": "14 St-Union Sq",
    "lat": 40.734673,
    "lon": -73.989951,
    "lines": ["4", "5", "6", "6X"],
    "northStopId": "635N",
    "southStopId": "635S",
    "transfers": [
      {
        "toStationId": "L03",
        "toLines": ["L"],
        "walkingSeconds": 180,
        "accessible": false
      },
      {
        "toStationId": "R20",
        "toLines": ["N", "Q", "R", "W"],
        "walkingSeconds": 180,
        "accessible": false
      }
    ],
    "ada": true,
    "borough": "manhattan",
    "complex": "C045"
  },
  "636": {
    "id": "636",
    "name": "Astor Pl",
    "lat": 40.730054,
    "lon": -73.99107,
    "lines": ["4", "6", "6X"],
    "northStopId": "636N",
    "southStopId": "636S",
    "transfers": [],
    "ada": false,
    "borough": "manhattan"
  },
  "637": {
    "id": "637",
    "name": "Bleecker St",
    "lat": 40.725915,
    "lon": -73.994659,
    "lines": ["4", "6", "6X"],
    "northStopId": "637N",
    "southStopId": "637S",
    "transfers": [
      {
        "toStationId": "D21",
        "toLines": ["B", "D", "F", "M", "Q"],
        "walkingSeconds": 180,
        "accessible": false
      }
    ],
    "ada": false,
    "borough": "manhattan"
  },
  "638": {
    "id": "638",
    "name": "Spring St",
    "lat": 40.722301,
    "lon": -73.997141,
    "lines": ["4", "6", "6X"],
    "northStopId": "638N",
    "southStopId": "638S",
    "transfers": [],
    "ada": true,
    "borough": "manhattan",
    "complex": "C046"
  },
  "639": {
    "id": "639",
    "name": "Canal St",
    "lat": 40.718803,
    "lon": -74.000193,
    "lines": ["4", "6", "6X"],
    "northStopId": "639N",
    "southStopId": "639S",
    "transfers": [
      {
        "toStationId": "M20",
        "toLines": ["J", "Z"],
        "walkingSeconds": 180,
        "accessible": false
      },
      {
        "toStationId": "Q01",
        "toLines": ["N", "Q"],
        "walkingSeconds": 180,
        "accessible": false
      },
      {
        "toStationId": "R23",
        "toLines": ["N", "R", "W"],
        "walkingSeconds": 180,
        "accessible": false
      }
    ],
    "ada": true,
    "borough": "manhattan",
    "complex": "C018"
  },
  "640": {
    "id": "640",
    "name": "Brooklyn Bridge-City Hall",
    "lat": 40.713065,
    "lon": -74.004131,
    "lines": ["4", "5", "6", "6X"],
    "northStopId": "640N",
    "southStopId": "640S",
    "transfers": [
      {
        "toStationId": "M21",
        "toLines": ["J", "Z"],
        "walkingSeconds": 180,
        "accessible": false
      }
    ],
    "ada": false,
    "borough": "brooklyn"
  },
  "701": {
    "id": "701",
    "name": "Flushing-Main St",
    "lat": 40.7596,
    "lon": -73.83003,
    "lines": ["7", "7X"],
    "northStopId": "701N",
    "southStopId": "701S",
    "transfers": [],
    "ada": true,
    "borough": "queens"
  },
  "702": {
    "id": "702",
    "name": "Mets-Willets Point",
    "lat": 40.754622,
    "lon": -73.845625,
    "lines": ["7", "7X"],
    "northStopId": "702N",
    "southStopId": "702S",
    "transfers": [],
    "ada": true,
    "borough": "queens"
  },
  "705": {
    "id": "705",
    "name": "111 St",
    "lat": 40.75173,
    "lon": -73.855334,
    "lines": ["7"],
    "northStopId": "705N",
    "southStopId": "705S",
    "transfers": [],
    "ada": false,
    "borough": "queens",
    "complex": "C047"
  },
  "706": {
    "id": "706",
    "name": "103 St-Corona Plaza",
    "lat": 40.749865,
    "lon": -73.8627,
    "lines": ["7"],
    "northStopId": "706N",
    "southStopId": "706S",
    "transfers": [],
    "ada": false,
    "borough": "queens"
  },
  "707": {
    "id": "707",
    "name": "Junction Blvd",
    "lat": 40.749145,
    "lon": -73.869527,
    "lines": ["7", "7X"],
    "northStopId": "707N",
    "southStopId": "707S",
    "transfers": [],
    "ada": false,
    "borough": "queens"
  },
  "708": {
    "id": "708",
    "name": "90 St-Elmhurst Av",
    "lat": 40.748408,
    "lon": -73.876613,
    "lines": ["7"],
    "northStopId": "708N",
    "southStopId": "708S",
    "transfers": [],
    "ada": true,
    "borough": "queens"
  },
  "709": {
    "id": "709",
    "name": "82 St-Jackson Hts",
    "lat": 40.747659,
    "lon": -73.883697,
    "lines": ["7"],
    "northStopId": "709N",
    "southStopId": "709S",
    "transfers": [],
    "ada": true,
    "borough": "queens"
  },
  "710": {
    "id": "710",
    "name": "74 St-Broadway",
    "lat": 40.746848,
    "lon": -73.891394,
    "lines": ["7", "7X"],
    "northStopId": "710N",
    "southStopId": "710S",
    "transfers": [
      {
        "toStationId": "G14",
        "toLines": ["E", "F", "M", "R"],
        "walkingSeconds": 180,
        "accessible": false
      }
    ],
    "ada": true,
    "borough": "queens"
  },
  "711": {
    "id": "711",
    "name": "69 St",
    "lat": 40.746325,
    "lon": -73.896403,
    "lines": ["7", "7X"],
    "northStopId": "711N",
    "southStopId": "711S",
    "transfers": [],
    "ada": false,
    "borough": "queens"
  },
  "712": {
    "id": "712",
    "name": "61 St-Woodside",
    "lat": 40.74563,
    "lon": -73.902984,
    "lines": ["7", "7X"],
    "northStopId": "712N",
    "southStopId": "712S",
    "transfers": [],
    "ada": false,
    "borough": "queens"
  },
  "713": {
    "id": "713",
    "name": "52 St",
    "lat": 40.744149,
    "lon": -73.912549,
    "lines": ["7", "7X"],
    "northStopId": "713N",
    "southStopId": "713S",
    "transfers": [],
    "ada": true,
    "borough": "queens"
  },
  "714": {
    "id": "714",
    "name": "46 St-Bliss St",
    "lat": 40.743132,
    "lon": -73.918435,
    "lines": ["7", "7X"],
    "northStopId": "714N",
    "southStopId": "714S",
    "transfers": [],
    "ada": false,
    "borough": "queens"
  },
  "715": {
    "id": "715",
    "name": "40 St-Lowery St",
    "lat": 40.743781,
    "lon": -73.924016,
    "lines": ["7", "7X"],
    "northStopId": "715N",
    "southStopId": "715S",
    "transfers": [],
    "ada": false,
    "borough": "queens"
  },
  "716": {
    "id": "716",
    "name": "33 St-Rawson St",
    "lat": 40.744587,
    "lon": -73.930997,
    "lines": ["7", "7X"],
    "northStopId": "716N",
    "southStopId": "716S",
    "transfers": [],
    "ada": true,
    "borough": "manhattan"
  },
  "718": {
    "id": "718",
    "name": "Queensboro Plaza",
    "lat": 40.750582,
    "lon": -73.940202,
    "lines": ["7", "7X"],
    "northStopId": "718N",
    "southStopId": "718S",
    "transfers": [
      {
        "toStationId": "R09",
        "toLines": ["N", "W"],
        "walkingSeconds": 180,
        "accessible": false
      }
    ],
    "ada": false,
    "borough": "manhattan",
    "complex": "C048"
  },
  "719": {
    "id": "719",
    "name": "Court Sq",
    "lat": 40.747023,
    "lon": -73.945264,
    "lines": ["7", "7X"],
    "northStopId": "719N",
    "southStopId": "719S",
    "transfers": [
      {
        "toStationId": "F09",
        "toLines": ["E", "F", "M"],
        "walkingSeconds": 300,
        "accessible": false
      },
      {
        "toStationId": "G22",
        "toLines": ["G"],
        "walkingSeconds": 180,
        "accessible": false
      }
    ],
    "ada": true,
    "borough": "queens",
    "complex": "C049"
  },
  "720": {
    "id": "720",
    "name": "Hunters Point Av",
    "lat": 40.742216,
    "lon": -73.948916,
    "lines": ["7", "7X"],
    "northStopId": "720N",
    "southStopId": "720S",
    "transfers": [],
    "ada": true,
    "borough": "queens"
  },
  "721": {
    "id": "721",
    "name": "Vernon Blvd-Jackson Av",
    "lat": 40.742626,
    "lon": -73.953581,
    "lines": ["7", "7X"],
    "northStopId": "721N",
    "southStopId": "721S",
    "transfers": [],
    "ada": false,
    "borough": "manhattan"
  },
  "723": {
    "id": "723",
    "name": "Grand Central-42 St",
    "lat": 40.751431,
    "lon": -73.976041,
    "lines": ["7", "7X"],
    "northStopId": "723N",
    "southStopId": "723S",
    "transfers": [
      {
        "toStationId": "631",
        "toLines": ["4", "5", "6", "6X"],
        "walkingSeconds": 180,
        "accessible": false
      },
      {
        "toStationId": "901",
        "toLines": ["GS"],
        "walkingSeconds": 300,
        "accessible": false
      }
    ],
    "ada": true,
    "borough": "manhattan",
    "complex": "C013"
  },
  "724": {
    "id": "724",
    "name": "5 Av",
    "lat": 40.753821,
    "lon": -73.981963,
    "lines": ["7", "7X"],
    "northStopId": "724N",
    "southStopId": "724S",
    "transfers": [
      {
        "toStationId": "D16",
        "toLines": ["B", "D", "F", "M", "Q"],
        "walkingSeconds": 180,
        "accessible": false
      }
    ],
    "ada": true,
    "borough": "manhattan"
  },
  "725": {
    "id": "725",
    "name": "Times Sq-42 St",
    "lat": 40.755477,
    "lon": -73.987691,
    "lines": ["7", "7X"],
    "northStopId": "725N",
    "southStopId": "725S",
    "transfers": [
      {
        "toStationId": "127",
        "toLines": ["1", "2", "3"],
        "walkingSeconds": 180,
        "accessible": false
      },
      {
        "toStationId": "902",
        "toLines": ["GS"],
        "walkingSeconds": 300,
        "accessible": false
      },
      {
        "toStationId": "A27",
        "toLines": ["A", "C", "E"],
        "walkingSeconds": 180,
        "accessible": false
      },
      {
        "toStationId": "R16",
        "toLines": ["N", "Q", "R", "W"],
        "walkingSeconds": 180,
        "accessible": false
      }
    ],
    "ada": true,
    "borough": "manhattan",
    "complex": "C013"
  },
  "726": {
    "id": "726",
    "name": "34 St-Hudson Yards",
    "lat": 40.755882,
    "lon": -74.00191,
    "lines": ["7", "7X"],
    "northStopId": "726N",
    "southStopId": "726S",
    "transfers": [],
    "ada": true,
    "borough": "manhattan"
  },
  "901": {
    "id": "901",
    "name": "Grand Central-42 St",
    "lat": 40.752769,
    "lon": -73.979189,
    "lines": ["GS"],
    "northStopId": "901N",
    "southStopId": "901S",
    "transfers": [
      {
        "toStationId": "631",
        "toLines": ["4", "5", "6", "6X"],
        "walkingSeconds": 180,
        "accessible": false
      },
      {
        "toStationId": "723",
        "toLines": ["7", "7X"],
        "walkingSeconds": 300,
        "accessible": false
      }
    ],
    "ada": true,
    "borough": "manhattan",
    "complex": "C013"
  },
  "902": {
    "id": "902",
    "name": "Times Sq-42 St",
    "lat": 40.755983,
    "lon": -73.986229,
    "lines": ["GS"],
    "northStopId": "902N",
    "southStopId": "902S",
    "transfers": [
      {
        "toStationId": "127",
        "toLines": ["1", "2", "3"],
        "walkingSeconds": 180,
        "accessible": false
      },
      {
        "toStationId": "725",
        "toLines": ["7", "7X"],
        "walkingSeconds": 300,
        "accessible": false
      },
      {
        "toStationId": "A27",
        "toLines": ["A", "C", "E"],
        "walkingSeconds": 300,
        "accessible": false
      },
      {
        "toStationId": "R16",
        "toLines": ["N", "Q", "R", "W"],
        "walkingSeconds": 180,
        "accessible": false
      }
    ],
    "ada": true,
    "borough": "manhattan",
    "complex": "C013"
  },
  "A02": {
    "id": "A02",
    "name": "Inwood-207 St",
    "lat": 40.868072,
    "lon": -73.919899,
    "lines": ["A"],
    "northStopId": "A02N",
    "southStopId": "A02S",
    "transfers": [],
    "ada": true,
    "borough": "manhattan"
  },
  "A03": {
    "id": "A03",
    "name": "Dyckman St",
    "lat": 40.865491,
    "lon": -73.927271,
    "lines": ["A"],
    "northStopId": "A03N",
    "southStopId": "A03S",
    "transfers": [],
    "ada": true,
    "borough": "manhattan",
    "complex": "C001"
  },
  "A05": {
    "id": "A05",
    "name": "190 St",
    "lat": 40.859022,
    "lon": -73.93418,
    "lines": ["A"],
    "northStopId": "A05N",
    "southStopId": "A05S",
    "transfers": [],
    "ada": true,
    "borough": "manhattan"
  },
  "A06": {
    "id": "A06",
    "name": "181 St",
    "lat": 40.851695,
    "lon": -73.937969,
    "lines": ["A"],
    "northStopId": "A06N",
    "southStopId": "A06S",
    "transfers": [],
    "ada": true,
    "borough": "manhattan",
    "complex": "C002"
  },
  "A07": {
    "id": "A07",
    "name": "175 St",
    "lat": 40.847391,
    "lon": -73.939704,
    "lines": ["A"],
    "northStopId": "A07N",
    "southStopId": "A07S",
    "transfers": [],
    "ada": false,
    "borough": "manhattan"
  },
  "A09": {
    "id": "A09",
    "name": "168 St",
    "lat": 40.840719,
    "lon": -73.939561,
    "lines": ["A", "C"],
    "northStopId": "A09N",
    "southStopId": "A09S",
    "transfers": [
      {
        "toStationId": "112",
        "toLines": ["1"],
        "walkingSeconds": 180,
        "accessible": false
      }
    ],
    "ada": false,
    "borough": "manhattan"
  },
  "A10": {
    "id": "A10",
    "name": "163 St-Amsterdam Av",
    "lat": 40.836013,
    "lon": -73.939892,
    "lines": ["A", "C"],
    "northStopId": "A10N",
    "southStopId": "A10S",
    "transfers": [],
    "ada": false,
    "borough": "manhattan"
  },
  "A11": {
    "id": "A11",
    "name": "155 St",
    "lat": 40.830518,
    "lon": -73.941514,
    "lines": ["A", "C"],
    "northStopId": "A11N",
    "southStopId": "A11S",
    "transfers": [],
    "ada": false,
    "borough": "manhattan",
    "complex": "C050"
  },
  "A12": {
    "id": "A12",
    "name": "145 St",
    "lat": 40.824783,
    "lon": -73.944216,
    "lines": ["A", "C"],
    "northStopId": "A12N",
    "southStopId": "A12S",
    "transfers": [
      {
        "toStationId": "D13",
        "toLines": ["B", "D"],
        "walkingSeconds": 180,
        "accessible": false
      }
    ],
    "ada": true,
    "borough": "manhattan",
    "complex": "C003"
  },
  "A14": {
    "id": "A14",
    "name": "135 St",
    "lat": 40.817894,
    "lon": -73.947649,
    "lines": ["A", "B", "C"],
    "northStopId": "A14N",
    "southStopId": "A14S",
    "transfers": [],
    "ada": false,
    "borough": "manhattan",
    "complex": "C025"
  },
  "A15": {
    "id": "A15",
    "name": "125 St",
    "lat": 40.811109,
    "lon": -73.952343,
    "lines": ["A", "B", "C", "D"],
    "northStopId": "A15N",
    "southStopId": "A15S",
    "transfers": [],
    "ada": true,
    "borough": "manhattan",
    "complex": "C004"
  },
  "A16": {
    "id": "A16",
    "name": "116 St",
    "lat": 40.805085,
    "lon": -73.954882,
    "lines": ["A", "B", "C"],
    "northStopId": "A16N",
    "southStopId": "A16S",
    "transfers": [],
    "ada": false,
    "borough": "manhattan",
    "complex": "C026"
  },
  "A17": {
    "id": "A17",
    "name": "Cathedral Pkwy (110 St)",
    "lat": 40.800603,
    "lon": -73.958161,
    "lines": ["A", "B", "C"],
    "northStopId": "A17N",
    "southStopId": "A17S",
    "transfers": [],
    "ada": true,
    "borough": "manhattan",
    "complex": "C005"
  },
  "A18": {
    "id": "A18",
    "name": "103 St",
    "lat": 40.796092,
    "lon": -73.961454,
    "lines": ["A", "B", "C"],
    "northStopId": "A18N",
    "southStopId": "A18S",
    "transfers": [],
    "ada": true,
    "borough": "manhattan",
    "complex": "C006"
  },
  "A19": {
    "id": "A19",
    "name": "96 St",
    "lat": 40.791642,
    "lon": -73.964696,
    "lines": ["A", "B", "C"],
    "northStopId": "A19N",
    "southStopId": "A19S",
    "transfers": [],
    "ada": true,
    "borough": "manhattan",
    "complex": "C007"
  },
  "A20": {
    "id": "A20",
    "name": "86 St",
    "lat": 40.785868,
    "lon": -73.968916,
    "lines": ["A", "B", "C"],
    "northStopId": "A20N",
    "southStopId": "A20S",
    "transfers": [],
    "ada": true,
    "borough": "manhattan",
    "complex": "C008"
  },
  "A21": {
    "id": "A21",
    "name": "81 St-Museum of Natural History",
    "lat": 40.781433,
    "lon": -73.972143,
    "lines": ["A", "B", "C"],
    "northStopId": "A21N",
    "southStopId": "A21S",
    "transfers": [],
    "ada": false,
    "borough": "manhattan"
  },
  "A22": {
    "id": "A22",
    "name": "72 St",
    "lat": 40.775594,
    "lon": -73.97641,
    "lines": ["A", "B", "C"],
    "northStopId": "A22N",
    "southStopId": "A22S",
    "transfers": [],
    "ada": true,
    "borough": "manhattan",
    "complex": "C010"
  },
  "A24": {
    "id": "A24",
    "name": "59 St-Columbus Circle",
    "lat": 40.768296,
    "lon": -73.981736,
    "lines": ["A", "B", "C", "D"],
    "northStopId": "A24N",
    "southStopId": "A24S",
    "transfers": [
      {
        "toStationId": "125",
        "toLines": ["1", "2"],
        "walkingSeconds": 180,
        "accessible": false
      }
    ],
    "ada": true,
    "borough": "manhattan",
    "complex": "C011"
  },
  "A25": {
    "id": "A25",
    "name": "50 St",
    "lat": 40.762456,
    "lon": -73.985984,
    "lines": ["A", "C", "E"],
    "northStopId": "A25N",
    "southStopId": "A25S",
    "transfers": [],
    "ada": true,
    "borough": "manhattan",
    "complex": "C012"
  },
  "A27": {
    "id": "A27",
    "name": "42 St-Port Authority Bus Terminal",
    "lat": 40.757308,
    "lon": -73.989735,
    "lines": ["A", "C", "E"],
    "northStopId": "A27N",
    "southStopId": "A27S",
    "transfers": [
      {
        "toStationId": "127",
        "toLines": ["1", "2", "3"],
        "walkingSeconds": 300,
        "accessible": false
      },
      {
        "toStationId": "725",
        "toLines": ["7", "7X"],
        "walkingSeconds": 180,
        "accessible": false
      },
      {
        "toStationId": "902",
        "toLines": ["GS"],
        "walkingSeconds": 300,
        "accessible": false
      },
      {
        "toStationId": "R16",
        "toLines": ["N", "Q", "R", "W"],
        "walkingSeconds": 300,
        "accessible": false
      }
    ],
    "ada": true,
    "borough": "manhattan",
    "complex": "C013"
  },
  "A28": {
    "id": "A28",
    "name": "34 St-Penn Station",
    "lat": 40.752287,
    "lon": -73.993391,
    "lines": ["A", "C", "E"],
    "northStopId": "A28N",
    "southStopId": "A28S",
    "transfers": [],
    "ada": true,
    "borough": "manhattan",
    "complex": "C014"
  },
  "A30": {
    "id": "A30",
    "name": "23 St",
    "lat": 40.745906,
    "lon": -73.998041,
    "lines": ["A", "C", "E"],
    "northStopId": "A30N",
    "southStopId": "A30S",
    "transfers": [],
    "ada": true,
    "borough": "manhattan",
    "complex": "C016"
  },
  "A31": {
    "id": "A31",
    "name": "14 St",
    "lat": 40.740893,
    "lon": -74.00169,
    "lines": ["A", "C", "E"],
    "northStopId": "A31N",
    "southStopId": "A31S",
    "transfers": [
      {
        "toStationId": "L01",
        "toLines": ["L"],
        "walkingSeconds": 90,
        "accessible": false
      }
    ],
    "ada": true,
    "borough": "manhattan",
    "complex": "C017"
  },
  "A32": {
    "id": "A32",
    "name": "W 4 St-Wash Sq",
    "lat": 40.732338,
    "lon": -74.000495,
    "lines": ["A", "C", "E"],
    "northStopId": "A32N",
    "southStopId": "A32S",
    "transfers": [
      {
        "toStationId": "D20",
        "toLines": ["B", "D", "F", "M", "Q"],
        "walkingSeconds": 180,
        "accessible": false
      }
    ],
    "ada": true,
    "borough": "manhattan",
    "complex": "C051"
  },
  "A33": {
    "id": "A33",
    "name": "Spring St",
    "lat": 40.726227,
    "lon": -74.003739,
    "lines": ["A", "C", "E"],
    "northStopId": "A33N",
    "southStopId": "A33S",
    "transfers": [],
    "ada": true,
    "borough": "manhattan",
    "complex": "C046"
  },
  "A34": {
    "id": "A34",
    "name": "Canal St",
    "lat": 40.720824,
    "lon": -74.005229,
    "lines": ["A", "C", "E"],
    "northStopId": "A34N",
    "southStopId": "A34S",
    "transfers": [],
    "ada": true,
    "borough": "manhattan",
    "complex": "C018"
  },
  "A36": {
    "id": "A36",
    "name": "Chambers St",
    "lat": 40.714111,
    "lon": -74.008585,
    "lines": ["A", "C"],
    "northStopId": "A36N",
    "southStopId": "A36S",
    "transfers": [
      {
        "toStationId": "228",
        "toLines": ["2", "3"],
        "walkingSeconds": 180,
        "accessible": false
      },
      {
        "toStationId": "E01",
        "toLines": ["E"],
        "walkingSeconds": 300,
        "accessible": false
      },
      {
        "toStationId": "R25",
        "toLines": ["N", "R", "W"],
        "walkingSeconds": 420,
        "accessible": false
      }
    ],
    "ada": true,
    "borough": "manhattan",
    "complex": "C019"
  },
  "A38": {
    "id": "A38",
    "name": "Fulton St",
    "lat": 40.710197,
    "lon": -74.007691,
    "lines": ["A", "C"],
    "northStopId": "A38N",
    "southStopId": "A38S",
    "transfers": [
      {
        "toStationId": "229",
        "toLines": ["2", "3"],
        "walkingSeconds": 180,
        "accessible": false
      },
      {
        "toStationId": "418",
        "toLines": ["4", "5"],
        "walkingSeconds": 180,
        "accessible": false
      },
      {
        "toStationId": "M22",
        "toLines": ["J", "Z"],
        "walkingSeconds": 180,
        "accessible": false
      }
    ],
    "ada": true,
    "borough": "brooklyn",
    "complex": "C027"
  },
  "A40": {
    "id": "A40",
    "name": "High St",
    "lat": 40.699337,
    "lon": -73.990531,
    "lines": ["A", "C"],
    "northStopId": "A40N",
    "southStopId": "A40S",
    "transfers": [],
    "ada": false,
    "borough": "brooklyn"
  },
  "A41": {
    "id": "A41",
    "name": "Jay St-MetroTech",
    "lat": 40.692338,
    "lon": -73.987342,
    "lines": ["A", "C", "F"],
    "northStopId": "A41N",
    "southStopId": "A41S",
    "transfers": [
      {
        "toStationId": "R29",
        "toLines": ["N", "R", "W"],
        "walkingSeconds": 90,
        "accessible": false
      }
    ],
    "ada": true,
    "borough": "brooklyn",
    "complex": "C052"
  },
  "A42": {
    "id": "A42",
    "name": "Hoyt-Schermerhorn Sts",
    "lat": 40.688484,
    "lon": -73.985001,
    "lines": ["A", "C", "G"],
    "northStopId": "A42N",
    "southStopId": "A42S",
    "transfers": [],
    "ada": true,
    "borough": "brooklyn"
  },
  "A43": {
    "id": "A43",
    "name": "Lafayette Av",
    "lat": 40.686113,
    "lon": -73.973946,
    "lines": ["A", "C"],
    "northStopId": "A43N",
    "southStopId": "A43S",
    "transfers": [],
    "ada": false,
    "borough": "brooklyn"
  },
  "A44": {
    "id": "A44",
    "name": "Clinton-Washington Avs",
    "lat": 40.683263,
    "lon": -73.965838,
    "lines": ["A", "C"],
    "northStopId": "A44N",
    "southStopId": "A44S",
    "transfers": [],
    "ada": false,
    "borough": "brooklyn",
    "complex": "C053"
  },
  "A45": {
    "id": "A45",
    "name": "Franklin Av",
    "lat": 40.68138,
    "lon": -73.956848,
    "lines": ["A", "C"],
    "northStopId": "A45N",
    "southStopId": "A45S",
    "transfers": [
      {
        "toStationId": "S01",
        "toLines": ["FS"],
        "walkingSeconds": 180,
        "accessible": false
      }
    ],
    "ada": false,
    "borough": "brooklyn",
    "complex": "C054"
  },
  "A46": {
    "id": "A46",
    "name": "Nostrand Av",
    "lat": 40.680438,
    "lon": -73.950426,
    "lines": ["A", "C"],
    "northStopId": "A46N",
    "southStopId": "A46S",
    "transfers": [],
    "ada": true,
    "borough": "brooklyn",
    "complex": "C033"
  },
  "A47": {
    "id": "A47",
    "name": "Kingston-Throop Avs",
    "lat": 40.679921,
    "lon": -73.940858,
    "lines": ["A", "C"],
    "northStopId": "A47N",
    "southStopId": "A47S",
    "transfers": [],
    "ada": false,
    "borough": "brooklyn"
  },
  "A48": {
    "id": "A48",
    "name": "Utica Av",
    "lat": 40.679364,
    "lon": -73.930729,
    "lines": ["A", "C"],
    "northStopId": "A48N",
    "southStopId": "A48S",
    "transfers": [],
    "ada": true,
    "borough": "brooklyn"
  },
  "A49": {
    "id": "A49",
    "name": "Ralph Av",
    "lat": 40.678822,
    "lon": -73.920786,
    "lines": ["A", "C"],
    "northStopId": "A49N",
    "southStopId": "A49S",
    "transfers": [],
    "ada": true,
    "borough": "brooklyn"
  },
  "A50": {
    "id": "A50",
    "name": "Rockaway Av",
    "lat": 40.67834,
    "lon": -73.911946,
    "lines": ["A", "C"],
    "northStopId": "A50N",
    "southStopId": "A50S",
    "transfers": [],
    "ada": true,
    "borough": "queens",
    "complex": "C034"
  },
  "A51": {
    "id": "A51",
    "name": "Broadway Junction",
    "lat": 40.678334,
    "lon": -73.905316,
    "lines": ["A", "C"],
    "northStopId": "A51N",
    "southStopId": "A51S",
    "transfers": [
      {
        "toStationId": "J27",
        "toLines": ["J", "Z"],
        "walkingSeconds": 180,
        "accessible": false
      },
      {
        "toStationId": "L22",
        "toLines": ["L"],
        "walkingSeconds": 180,
        "accessible": false
      }
    ],
    "ada": true,
    "borough": "brooklyn",
    "complex": "C055"
  },
  "A52": {
    "id": "A52",
    "name": "Liberty Av",
    "lat": 40.674542,
    "lon": -73.896548,
    "lines": ["A", "C"],
    "northStopId": "A52N",
    "southStopId": "A52S",
    "transfers": [],
    "ada": false,
    "borough": "queens"
  },
  "A53": {
    "id": "A53",
    "name": "Van Siclen Av",
    "lat": 40.67271,
    "lon": -73.890358,
    "lines": ["A", "C"],
    "northStopId": "A53N",
    "southStopId": "A53S",
    "transfers": [],
    "ada": true,
    "borough": "brooklyn",
    "complex": "C035"
  },
  "A54": {
    "id": "A54",
    "name": "Shepherd Av",
    "lat": 40.67413,
    "lon": -73.88075,
    "lines": ["A", "C"],
    "northStopId": "A54N",
    "southStopId": "A54S",
    "transfers": [],
    "ada": false,
    "borough": "queens"
  },
  "A55": {
    "id": "A55",
    "name": "Euclid Av",
    "lat": 40.675377,
    "lon": -73.872106,
    "lines": ["A", "C"],
    "northStopId": "A55N",
    "southStopId": "A55S",
    "transfers": [],
    "ada": false,
    "borough": "queens"
  },
  "A57": {
    "id": "A57",
    "name": "Grant Av",
    "lat": 40.677044,
    "lon": -73.86505,
    "lines": ["A"],
    "northStopId": "A57N",
    "southStopId": "A57S",
    "transfers": [],
    "ada": false,
    "borough": "queens"
  },
  "A59": {
    "id": "A59",
    "name": "80 St",
    "lat": 40.679371,
    "lon": -73.858992,
    "lines": ["A"],
    "northStopId": "A59N",
    "southStopId": "A59S",
    "transfers": [],
    "ada": false,
    "borough": "queens"
  },
  "A60": {
    "id": "A60",
    "name": "88 St",
    "lat": 40.679843,
    "lon": -73.85147,
    "lines": ["A"],
    "northStopId": "A60N",
    "southStopId": "A60S",
    "transfers": [],
    "ada": false,
    "borough": "queens"
  },
  "A61": {
    "id": "A61",
    "name": "Rockaway Blvd",
    "lat": 40.680429,
    "lon": -73.843853,
    "lines": ["A"],
    "northStopId": "A61N",
    "southStopId": "A61S",
    "transfers": [],
    "ada": true,
    "borough": "queens"
  },
  "A63": {
    "id": "A63",
    "name": "104 St",
    "lat": 40.681711,
    "lon": -73.837683,
    "lines": ["A"],
    "northStopId": "A63N",
    "southStopId": "A63S",
    "transfers": [],
    "ada": false,
    "borough": "queens",
    "complex": "C056"
  },
  "A64": {
    "id": "A64",
    "name": "111 St",
    "lat": 40.684331,
    "lon": -73.832163,
    "lines": ["A"],
    "northStopId": "A64N",
    "southStopId": "A64S",
    "transfers": [],
    "ada": false,
    "borough": "queens",
    "complex": "C047"
  },
  "A65": {
    "id": "A65",
    "name": "Ozone Park-Lefferts Blvd",
    "lat": 40.685951,
    "lon": -73.825798,
    "lines": ["A"],
    "northStopId": "A65N",
    "southStopId": "A65S",
    "transfers": [],
    "ada": true,
    "borough": "queens"
  },
  "B04": {
    "id": "B04",
    "name": "21 St-Queensbridge",
    "lat": 40.754203,
    "lon": -73.942836,
    "lines": ["F", "M", "R"],
    "northStopId": "B04N",
    "southStopId": "B04S",
    "transfers": [],
    "ada": false,
    "borough": "manhattan"
  },
  "B06": {
    "id": "B06",
    "name": "Roosevelt Island",
    "lat": 40.759145,
    "lon": -73.95326,
    "lines": ["F", "M", "R"],
    "northStopId": "B06N",
    "southStopId": "B06S",
    "transfers": [],
    "ada": false,
    "borough": "manhattan"
  },
  "B08": {
    "id": "B08",
    "name": "Lexington Av/63 St",
    "lat": 40.764629,
    "lon": -73.966113,
    "lines": ["F", "M", "N", "Q", "R"],
    "northStopId": "B08N",
    "southStopId": "B08S",
    "transfers": [
      {
        "toStationId": "629",
        "toLines": ["4", "5", "6", "6X"],
        "walkingSeconds": 300,
        "accessible": false
      },
      {
        "toStationId": "R11",
        "toLines": ["N", "R", "W"],
        "walkingSeconds": 300,
        "accessible": false
      }
    ],
    "ada": false,
    "borough": "manhattan"
  },
  "B10": {
    "id": "B10",
    "name": "57 St",
    "lat": 40.763972,
    "lon": -73.97745,
    "lines": ["F", "M", "Q"],
    "northStopId": "B10N",
    "southStopId": "B10S",
    "transfers": [],
    "ada": false,
    "borough": "manhattan"
  },
  "B12": {
    "id": "B12",
    "name": "9 Av",
    "lat": 40.646292,
    "lon": -73.994324,
    "lines": ["D", "Q", "R", "W"],
    "northStopId": "B12N",
    "southStopId": "B12S",
    "transfers": [],
    "ada": false,
    "borough": "brooklyn"
  },
  "B13": {
    "id": "B13",
    "name": "Fort Hamilton Pkwy",
    "lat": 40.640914,
    "lon": -73.994304,
    "lines": ["D", "Q"],
    "northStopId": "B13N",
    "southStopId": "B13S",
    "transfers": [],
    "ada": true,
    "borough": "brooklyn",
    "complex": "C057"
  },
  "B14": {
    "id": "B14",
    "name": "50 St",
    "lat": 40.63626,
    "lon": -73.994791,
    "lines": ["D", "Q"],
    "northStopId": "B14N",
    "southStopId": "B14S",
    "transfers": [],
    "ada": true,
    "borough": "brooklyn",
    "complex": "C012"
  },
  "B15": {
    "id": "B15",
    "name": "55 St",
    "lat": 40.631435,
    "lon": -73.995476,
    "lines": ["D", "Q"],
    "northStopId": "B15N",
    "southStopId": "B15S",
    "transfers": [],
    "ada": false,
    "borough": "brooklyn"
  },
  "B16": {
    "id": "B16",
    "name": "62 St",
    "lat": 40.626472,
    "lon": -73.996895,
    "lines": ["D", "Q", "R", "W"],
    "northStopId": "B16N",
    "southStopId": "B16S",
    "transfers": [
      {
        "toStationId": "N04",
        "toLines": ["N", "W"],
        "walkingSeconds": 180,
        "accessible": false
      }
    ],
    "ada": false,
    "borough": "brooklyn"
  },
  "B17": {
    "id": "B17",
    "name": "71 St",
    "lat": 40.619589,
    "lon": -73.998864,
    "lines": ["D", "Q"],
    "northStopId": "B17N",
    "southStopId": "B17S",
    "transfers": [],
    "ada": false,
    "borough": "brooklyn"
  },
  "B18": {
    "id": "B18",
    "name": "79 St",
    "lat": 40.613501,
    "lon": -74.00061,
    "lines": ["D", "Q"],
    "northStopId": "B18N",
    "southStopId": "B18S",
    "transfers": [],
    "ada": false,
    "borough": "brooklyn",
    "complex": "C009"
  },
  "B19": {
    "id": "B19",
    "name": "18 Av",
    "lat": 40.607954,
    "lon": -74.001736,
    "lines": ["D", "Q"],
    "northStopId": "B19N",
    "southStopId": "B19S",
    "transfers": [],
    "ada": false,
    "borough": "brooklyn",
    "complex": "C058"
  },
  "B20": {
    "id": "B20",
    "name": "20 Av",
    "lat": 40.604556,
    "lon": -73.998168,
    "lines": ["D", "Q"],
    "northStopId": "B20N",
    "southStopId": "B20S",
    "transfers": [],
    "ada": false,
    "borough": "brooklyn",
    "complex": "C059"
  },
  "B21": {
    "id": "B21",
    "name": "Bay Pkwy",
    "lat": 40.601875,
    "lon": -73.993728,
    "lines": ["D", "Q", "R", "W"],
    "northStopId": "B21N",
    "southStopId": "B21S",
    "transfers": [],
    "ada": false,
    "borough": "brooklyn",
    "complex": "C060"
  },
  "B22": {
    "id": "B22",
    "name": "25 Av",
    "lat": 40.597704,
    "lon": -73.986829,
    "lines": ["D"],
    "northStopId": "B22N",
    "southStopId": "B22S",
    "transfers": [],
    "ada": false,
    "borough": "brooklyn"
  },
  "B23": {
    "id": "B23",
    "name": "Bay 50 St",
    "lat": 40.588841,
    "lon": -73.983765,
    "lines": ["D"],
    "northStopId": "B23N",
    "southStopId": "B23S",
    "transfers": [],
    "ada": false,
    "borough": "brooklyn"
  },
  "D01": {
    "id": "D01",
    "name": "Norwood-205 St",
    "lat": 40.874811,
    "lon": -73.878855,
    "lines": ["D"],
    "northStopId": "D01N",
    "southStopId": "D01S",
    "transfers": [],
    "ada": false,
    "borough": "bronx"
  },
  "D03": {
    "id": "D03",
    "name": "Bedford Park Blvd",
    "lat": 40.873244,
    "lon": -73.887138,
    "lines": ["B", "D"],
    "northStopId": "D03N",
    "southStopId": "D03S",
    "transfers": [],
    "ada": false,
    "borough": "bronx"
  },
  "D04": {
    "id": "D04",
    "name": "Kingsbridge Rd",
    "lat": 40.866978,
    "lon": -73.893509,
    "lines": ["B", "D"],
    "northStopId": "D04N",
    "southStopId": "D04S",
    "transfers": [],
    "ada": false,
    "borough": "bronx",
    "complex": "C037"
  },
  "D05": {
    "id": "D05",
    "name": "Fordham Rd",
    "lat": 40.861296,
    "lon": -73.897749,
    "lines": ["B", "D"],
    "northStopId": "D05N",
    "southStopId": "D05S",
    "transfers": [],
    "ada": true,
    "borough": "bronx",
    "complex": "C038"
  },
  "D06": {
    "id": "D06",
    "name": "182-183 Sts",
    "lat": 40.856093,
    "lon": -73.900741,
    "lines": ["B", "D"],
    "northStopId": "D06N",
    "southStopId": "D06S",
    "transfers": [],
    "ada": false,
    "borough": "bronx"
  },
  "D07": {
    "id": "D07",
    "name": "Tremont Av",
    "lat": 40.85041,
    "lon": -73.905227,
    "lines": ["B", "D"],
    "northStopId": "D07N",
    "southStopId": "D07S",
    "transfers": [],
    "ada": false,
    "borough": "bronx"
  },
  "D08": {
    "id": "D08",
    "name": "174-175 Sts",
    "lat": 40.8459,
    "lon": -73.910136,
    "lines": ["B", "D"],
    "northStopId": "D08N",
    "southStopId": "D08S",
    "transfers": [],
    "ada": false,
    "borough": "manhattan"
  },
  "D09": {
    "id": "D09",
    "name": "170 St",
    "lat": 40.839306,
    "lon": -73.9134,
    "lines": ["B", "D"],
    "northStopId": "D09N",
    "southStopId": "D09S",
    "transfers": [],
    "ada": false,
    "borough": "manhattan",
    "complex": "C039"
  },
  "D10": {
    "id": "D10",
    "name": "167 St",
    "lat": 40.833771,
    "lon": -73.91844,
    "lines": ["B", "D"],
    "northStopId": "D10N",
    "southStopId": "D10S",
    "transfers": [],
    "ada": true,
    "borough": "manhattan",
    "complex": "C040"
  },
  "D11": {
    "id": "D11",
    "name": "161 St-Yankee Stadium",
    "lat": 40.827905,
    "lon": -73.925651,
    "lines": ["B", "D"],
    "northStopId": "D11N",
    "southStopId": "D11S",
    "transfers": [
      {
        "toStationId": "414",
        "toLines": ["4"],
        "walkingSeconds": 180,
        "accessible": false
      }
    ],
    "ada": true,
    "borough": "bronx",
    "complex": "C041"
  },
  "D12": {
    "id": "D12",
    "name": "155 St",
    "lat": 40.830135,
    "lon": -73.938209,
    "lines": ["B", "D"],
    "northStopId": "D12N",
    "southStopId": "D12S",
    "transfers": [],
    "ada": false,
    "borough": "manhattan",
    "complex": "C050"
  },
  "D13": {
    "id": "D13",
    "name": "145 St",
    "lat": 40.824783,
    "lon": -73.944216,
    "lines": ["B", "D"],
    "northStopId": "D13N",
    "southStopId": "D13S",
    "transfers": [
      {
        "toStationId": "A12",
        "toLines": ["A", "C"],
        "walkingSeconds": 180,
        "accessible": false
      }
    ],
    "ada": true,
    "borough": "manhattan",
    "complex": "C003"
  },
  "D14": {
    "id": "D14",
    "name": "7 Av",
    "lat": 40.762862,
    "lon": -73.981637,
    "lines": ["B", "D", "E"],
    "northStopId": "D14N",
    "southStopId": "D14S",
    "transfers": [],
    "ada": true,
    "borough": "manhattan",
    "complex": "C061"
  },
  "D15": {
    "id": "D15",
    "name": "47-50 Sts-Rockefeller Ctr",
    "lat": 40.758663,
    "lon": -73.981329,
    "lines": ["B", "D", "F", "M", "Q"],
    "northStopId": "D15N",
    "southStopId": "D15S",
    "transfers": [],
    "ada": true,
    "borough": "manhattan"
  },
  "D16": {
    "id": "D16",
    "name": "42 St-Bryant Pk",
    "lat": 40.754222,
    "lon": -73.984569,
    "lines": ["B", "D", "F", "M", "Q"],
    "northStopId": "D16N",
    "southStopId": "D16S",
    "transfers": [
      {
        "toStationId": "724",
        "toLines": ["7", "7X"],
        "walkingSeconds": 180,
        "accessible": false
      }
    ],
    "ada": false,
    "borough": "manhattan",
    "complex": "C013"
  },
  "D17": {
    "id": "D17",
    "name": "34 St-Herald Sq",
    "lat": 40.749719,
    "lon": -73.987823,
    "lines": ["B", "D", "F", "M", "Q"],
    "northStopId": "D17N",
    "southStopId": "D17S",
    "transfers": [
      {
        "toStationId": "R17",
        "toLines": ["N", "Q", "R", "W"],
        "walkingSeconds": 180,
        "accessible": false
      }
    ],
    "ada": true,
    "borough": "manhattan",
    "complex": "C062"
  },
  "D18": {
    "id": "D18",
    "name": "23 St",
    "lat": 40.742878,
    "lon": -73.992821,
    "lines": ["F", "M", "Q"],
    "northStopId": "D18N",
    "southStopId": "D18S",
    "transfers": [],
    "ada": true,
    "borough": "manhattan",
    "complex": "C016"
  },
  "D19": {
    "id": "D19",
    "name": "14 St",
    "lat": 40.738228,
    "lon": -73.996209,
    "lines": ["F", "M", "Q"],
    "northStopId": "D19N",
    "southStopId": "D19S",
    "transfers": [
      {
        "toStationId": "132",
        "toLines": ["1", "2", "3"],
        "walkingSeconds": 300,
        "accessible": false
      },
      {
        "toStationId": "L02",
        "toLines": ["L"],
        "walkingSeconds": 180,
        "accessible": false
      }
    ],
    "ada": true,
    "borough": "manhattan",
    "complex": "C017"
  },
  "D20": {
    "id": "D20",
    "name": "W 4 St-Wash Sq",
    "lat": 40.732338,
    "lon": -74.000495,
    "lines": ["B", "D", "F", "M", "Q"],
    "northStopId": "D20N",
    "southStopId": "D20S",
    "transfers": [
      {
        "toStationId": "A32",
        "toLines": ["A", "C", "E"],
        "walkingSeconds": 180,
        "accessible": false
      }
    ],
    "ada": true,
    "borough": "manhattan",
    "complex": "C051"
  },
  "D21": {
    "id": "D21",
    "name": "Broadway-Lafayette St",
    "lat": 40.725297,
    "lon": -73.996204,
    "lines": ["B", "D", "F", "M", "Q"],
    "northStopId": "D21N",
    "southStopId": "D21S",
    "transfers": [
      {
        "toStationId": "637",
        "toLines": ["4", "6", "6X"],
        "walkingSeconds": 180,
        "accessible": false
      }
    ],
    "ada": false,
    "borough": "manhattan"
  },
  "D22": {
    "id": "D22",
    "name": "Grand St",
    "lat": 40.718267,
    "lon": -73.993753,
    "lines": ["B", "D", "Q"],
    "northStopId": "D22N",
    "southStopId": "D22S",
    "transfers": [],
    "ada": false,
    "borough": "manhattan",
    "complex": "C063"
  },
  "D24": {
    "id": "D24",
    "name": "Atlantic Av-Barclays Ctr",
    "lat": 40.68446,
    "lon": -73.97689,
    "lines": ["B", "Q"],
    "northStopId": "D24N",
    "southStopId": "D24S",
    "transfers": [
      {
        "toStationId": "235",
        "toLines": ["2", "3", "4", "5"],
        "walkingSeconds": 180,
        "accessible": false
      },
      {
        "toStationId": "R31",
        "toLines": ["D", "N", "Q", "R", "W"],
        "walkingSeconds": 300,
        "accessible": false
      }
    ],
    "ada": true,
    "borough": "brooklyn",
    "complex": "C030"
  },
  "D25": {
    "id": "D25",
    "name": "7 Av",
    "lat": 40.67705,
    "lon": -73.972367,
    "lines": ["B", "Q"],
    "northStopId": "D25N",
    "southStopId": "D25S",
    "transfers": [],
    "ada": true,
    "borough": "brooklyn",
    "complex": "C061"
  },
  "D26": {
    "id": "D26",
    "name": "Prospect Park",
    "lat": 40.661614,
    "lon": -73.962246,
    "lines": ["B", "FS", "Q"],
    "northStopId": "D26N",
    "southStopId": "D26S",
    "transfers": [],
    "ada": true,
    "borough": "brooklyn"
  },
  "D27": {
    "id": "D27",
    "name": "Parkside Av",
    "lat": 40.655292,
    "lon": -73.961495,
    "lines": ["B", "Q"],
    "northStopId": "D27N",
    "southStopId": "D27S",
    "transfers": [],
    "ada": false,
    "borough": "brooklyn"
  },
  "D28": {
    "id": "D28",
    "name": "Church Av",
    "lat": 40.650527,
    "lon": -73.962982,
    "lines": ["B", "Q"],
    "northStopId": "D28N",
    "southStopId": "D28S",
    "transfers": [],
    "ada": true,
    "borough": "brooklyn",
    "complex": "C032"
  },
  "D29": {
    "id": "D29",
    "name": "Beverley Rd",
    "lat": 40.644031,
    "lon": -73.964492,
    "lines": ["B", "Q"],
    "northStopId": "D29N",
    "southStopId": "D29S",
    "transfers": [],
    "ada": true,
    "borough": "brooklyn"
  },
  "D30": {
    "id": "D30",
    "name": "Cortelyou Rd",
    "lat": 40.640927,
    "lon": -73.963891,
    "lines": ["B", "Q"],
    "northStopId": "D30N",
    "southStopId": "D30S",
    "transfers": [],
    "ada": true,
    "borough": "brooklyn"
  },
  "D31": {
    "id": "D31",
    "name": "Newkirk Plaza",
    "lat": 40.635082,
    "lon": -73.962793,
    "lines": ["B", "Q"],
    "northStopId": "D31N",
    "southStopId": "D31S",
    "transfers": [],
    "ada": false,
    "borough": "brooklyn"
  },
  "D32": {
    "id": "D32",
    "name": "Avenue H",
    "lat": 40.62927,
    "lon": -73.961639,
    "lines": ["B", "Q"],
    "northStopId": "D32N",
    "southStopId": "D32S",
    "transfers": [],
    "ada": true,
    "borough": "brooklyn"
  },
  "D33": {
    "id": "D33",
    "name": "Avenue J",
    "lat": 40.625039,
    "lon": -73.960803,
    "lines": ["B", "Q"],
    "northStopId": "D33N",
    "southStopId": "D33S",
    "transfers": [],
    "ada": true,
    "borough": "brooklyn"
  },
  "D34": {
    "id": "D34",
    "name": "Avenue M",
    "lat": 40.617618,
    "lon": -73.959399,
    "lines": ["B", "Q"],
    "northStopId": "D34N",
    "southStopId": "D34S",
    "transfers": [],
    "ada": true,
    "borough": "brooklyn"
  },
  "D35": {
    "id": "D35",
    "name": "Kings Hwy",
    "lat": 40.60867,
    "lon": -73.957734,
    "lines": ["B", "Q"],
    "northStopId": "D35N",
    "southStopId": "D35S",
    "transfers": [],
    "ada": false,
    "borough": "brooklyn",
    "complex": "C064"
  },
  "D37": {
    "id": "D37",
    "name": "Avenue U",
    "lat": 40.5993,
    "lon": -73.955929,
    "lines": ["Q"],
    "northStopId": "D37N",
    "southStopId": "D37S",
    "transfers": [],
    "ada": true,
    "borough": "brooklyn",
    "complex": "C065"
  },
  "D38": {
    "id": "D38",
    "name": "Neck Rd",
    "lat": 40.595246,
    "lon": -73.955161,
    "lines": ["Q"],
    "northStopId": "D38N",
    "southStopId": "D38S",
    "transfers": [],
    "ada": false,
    "borough": "brooklyn"
  },
  "D39": {
    "id": "D39",
    "name": "Sheepshead Bay",
    "lat": 40.586896,
    "lon": -73.954155,
    "lines": ["B", "Q"],
    "northStopId": "D39N",
    "southStopId": "D39S",
    "transfers": [],
    "ada": false,
    "borough": "brooklyn"
  },
  "D40": {
    "id": "D40",
    "name": "Brighton Beach",
    "lat": 40.577621,
    "lon": -73.961376,
    "lines": ["B", "Q"],
    "northStopId": "D40N",
    "southStopId": "D40S",
    "transfers": [],
    "ada": false,
    "borough": "brooklyn"
  },
  "D41": {
    "id": "D41",
    "name": "Ocean Pkwy",
    "lat": 40.576312,
    "lon": -73.968501,
    "lines": ["Q"],
    "northStopId": "D41N",
    "southStopId": "D41S",
    "transfers": [],
    "ada": false,
    "borough": "brooklyn"
  },
  "D42": {
    "id": "D42",
    "name": "W 8 St-NY Aquarium",
    "lat": 40.576127,
    "lon": -73.975939,
    "lines": ["F", "Q"],
    "northStopId": "D42N",
    "southStopId": "D42S",
    "transfers": [],
    "ada": false,
    "borough": "brooklyn"
  },
  "D43": {
    "id": "D43",
    "name": "Coney Island-Stillwell Av",
    "lat": 40.577422,
    "lon": -73.981233,
    "lines": ["D", "F", "N", "Q"],
    "northStopId": "D43N",
    "southStopId": "D43S",
    "transfers": [],
    "ada": true,
    "borough": "brooklyn"
  },
  "E01": {
    "id": "E01",
    "name": "World Trade Center",
    "lat": 40.712582,
    "lon": -74.009781,
    "lines": ["E"],
    "northStopId": "E01N",
    "southStopId": "E01S",
    "transfers": [
      {
        "toStationId": "228",
        "toLines": ["2", "3"],
        "walkingSeconds": 180,
        "accessible": false
      },
      {
        "toStationId": "A36",
        "toLines": ["A", "C"],
        "walkingSeconds": 300,
        "accessible": false
      },
      {
        "toStationId": "R25",
        "toLines": ["N", "R", "W"],
        "walkingSeconds": 240,
        "accessible": false
      }
    ],
    "ada": false,
    "borough": "manhattan"
  },
  "F01": {
    "id": "F01",
    "name": "Jamaica-179 St",
    "lat": 40.712646,
    "lon": -73.783817,
    "lines": ["E", "F"],
    "northStopId": "F01N",
    "southStopId": "F01S",
    "transfers": [],
    "ada": true,
    "borough": "queens"
  },
  "F02": {
    "id": "F02",
    "name": "169 St",
    "lat": 40.71047,
    "lon": -73.793604,
    "lines": ["E", "F"],
    "northStopId": "F02N",
    "southStopId": "F02S",
    "transfers": [],
    "ada": true,
    "borough": "queens"
  },
  "F03": {
    "id": "F03",
    "name": "Parsons Blvd",
    "lat": 40.707564,
    "lon": -73.803326,
    "lines": ["E", "F"],
    "northStopId": "F03N",
    "southStopId": "F03S",
    "transfers": [],
    "ada": false,
    "borough": "queens"
  },
  "F04": {
    "id": "F04",
    "name": "Sutphin Blvd",
    "lat": 40.70546,
    "lon": -73.810708,
    "lines": ["E", "F"],
    "northStopId": "F04N",
    "southStopId": "F04S",
    "transfers": [],
    "ada": false,
    "borough": "queens"
  },
  "F05": {
    "id": "F05",
    "name": "Briarwood",
    "lat": 40.709179,
    "lon": -73.820574,
    "lines": ["E", "F"],
    "northStopId": "F05N",
    "southStopId": "F05S",
    "transfers": [],
    "ada": false,
    "borough": "queens"
  },
  "F06": {
    "id": "F06",
    "name": "Kew Gardens-Union Tpke",
    "lat": 40.714441,
    "lon": -73.831008,
    "lines": ["E", "F"],
    "northStopId": "F06N",
    "southStopId": "F06S",
    "transfers": [],
    "ada": true,
    "borough": "queens"
  },
  "F07": {
    "id": "F07",
    "name": "75 Av",
    "lat": 40.718331,
    "lon": -73.837324,
    "lines": ["E", "F"],
    "northStopId": "F07N",
    "southStopId": "F07S",
    "transfers": [],
    "ada": false,
    "borough": "queens"
  },
  "F09": {
    "id": "F09",
    "name": "Court Sq-23 St",
    "lat": 40.747846,
    "lon": -73.946,
    "lines": ["E", "F", "M"],
    "northStopId": "F09N",
    "southStopId": "F09S",
    "transfers": [
      {
        "toStationId": "719",
        "toLines": ["7", "7X"],
        "walkingSeconds": 300,
        "accessible": false
      },
      {
        "toStationId": "G22",
        "toLines": ["G"],
        "walkingSeconds": 180,
        "accessible": false
      }
    ],
    "ada": false,
    "borough": "queens",
    "complex": "C049"
  },
  "F11": {
    "id": "F11",
    "name": "Lexington Av/53 St",
    "lat": 40.757552,
    "lon": -73.969055,
    "lines": ["E", "F", "M"],
    "northStopId": "F11N",
    "southStopId": "F11S",
    "transfers": [
      {
        "toStationId": "630",
        "toLines": ["4", "6", "6X"],
        "walkingSeconds": 180,
        "accessible": false
      }
    ],
    "ada": false,
    "borough": "manhattan",
    "complex": "lexington_53"
  },
  "F12": {
    "id": "F12",
    "name": "5 Av/53 St",
    "lat": 40.760167,
    "lon": -73.975224,
    "lines": ["E", "F", "M"],
    "northStopId": "F12N",
    "southStopId": "F12S",
    "transfers": [],
    "ada": false,
    "borough": "manhattan"
  },
  "F14": {
    "id": "F14",
    "name": "2 Av",
    "lat": 40.723402,
    "lon": -73.989938,
    "lines": ["F"],
    "northStopId": "F14N",
    "southStopId": "F14S",
    "transfers": [],
    "ada": true,
    "borough": "manhattan"
  },
  "F15": {
    "id": "F15",
    "name": "Delancey St-Essex St",
    "lat": 40.718611,
    "lon": -73.988114,
    "lines": ["F"],
    "northStopId": "F15N",
    "southStopId": "F15S",
    "transfers": [
      {
        "toStationId": "M18",
        "toLines": ["J", "M", "Z"],
        "walkingSeconds": 180,
        "accessible": false
      }
    ],
    "ada": false,
    "borough": "manhattan",
    "complex": "C066"
  },
  "F16": {
    "id": "F16",
    "name": "East Broadway",
    "lat": 40.713715,
    "lon": -73.990173,
    "lines": ["F"],
    "northStopId": "F16N",
    "southStopId": "F16S",
    "transfers": [],
    "ada": false,
    "borough": "manhattan"
  },
  "F18": {
    "id": "F18",
    "name": "York St",
    "lat": 40.701397,
    "lon": -73.986751,
    "lines": ["F"],
    "northStopId": "F18N",
    "southStopId": "F18S",
    "transfers": [],
    "ada": false,
    "borough": "manhattan"
  },
  "F20": {
    "id": "F20",
    "name": "Bergen St",
    "lat": 40.686145,
    "lon": -73.990862,
    "lines": ["F", "G"],
    "northStopId": "F20N",
    "southStopId": "F20S",
    "transfers": [],
    "ada": false,
    "borough": "brooklyn",
    "complex": "C031"
  },
  "F21": {
    "id": "F21",
    "name": "Carroll St",
    "lat": 40.680303,
    "lon": -73.995048,
    "lines": ["F", "G"],
    "northStopId": "F21N",
    "southStopId": "F21S",
    "transfers": [],
    "ada": false,
    "borough": "brooklyn"
  },
  "F22": {
    "id": "F22",
    "name": "Smith-9 Sts",
    "lat": 40.67358,
    "lon": -73.995959,
    "lines": ["F", "G"],
    "northStopId": "F22N",
    "southStopId": "F22S",
    "transfers": [],
    "ada": true,
    "borough": "brooklyn"
  },
  "F23": {
    "id": "F23",
    "name": "4 Av-9 St",
    "lat": 40.670272,
    "lon": -73.989779,
    "lines": ["F", "G"],
    "northStopId": "F23N",
    "southStopId": "F23S",
    "transfers": [
      {
        "toStationId": "R33",
        "toLines": ["D", "N", "Q", "R", "W"],
        "walkingSeconds": 180,
        "accessible": false
      }
    ],
    "ada": true,
    "borough": "brooklyn",
    "complex": "C067"
  },
  "F24": {
    "id": "F24",
    "name": "7 Av",
    "lat": 40.666271,
    "lon": -73.980305,
    "lines": ["F", "G"],
    "northStopId": "F24N",
    "southStopId": "F24S",
    "transfers": [],
    "ada": true,
    "borough": "brooklyn",
    "complex": "C061"
  },
  "F25": {
    "id": "F25",
    "name": "15 St-Prospect Park",
    "lat": 40.660365,
    "lon": -73.979493,
    "lines": ["F", "G"],
    "northStopId": "F25N",
    "southStopId": "F25S",
    "transfers": [],
    "ada": true,
    "borough": "brooklyn"
  },
  "F26": {
    "id": "F26",
    "name": "Fort Hamilton Pkwy",
    "lat": 40.650782,
    "lon": -73.975776,
    "lines": ["F", "G"],
    "northStopId": "F26N",
    "southStopId": "F26S",
    "transfers": [],
    "ada": true,
    "borough": "brooklyn",
    "complex": "C057"
  },
  "F27": {
    "id": "F27",
    "name": "Church Av",
    "lat": 40.644041,
    "lon": -73.979678,
    "lines": ["F", "G"],
    "northStopId": "F27N",
    "southStopId": "F27S",
    "transfers": [],
    "ada": true,
    "borough": "brooklyn",
    "complex": "C032"
  },
  "F29": {
    "id": "F29",
    "name": "Ditmas Av",
    "lat": 40.636119,
    "lon": -73.978172,
    "lines": ["F"],
    "northStopId": "F29N",
    "southStopId": "F29S",
    "transfers": [],
    "ada": false,
    "borough": "brooklyn"
  },
  "F30": {
    "id": "F30",
    "name": "18 Av",
    "lat": 40.629755,
    "lon": -73.976971,
    "lines": ["F"],
    "northStopId": "F30N",
    "southStopId": "F30S",
    "transfers": [],
    "ada": false,
    "borough": "brooklyn",
    "complex": "C058"
  },
  "F31": {
    "id": "F31",
    "name": "Avenue I",
    "lat": 40.625322,
    "lon": -73.976127,
    "lines": ["F"],
    "northStopId": "F31N",
    "southStopId": "F31S",
    "transfers": [],
    "ada": false,
    "borough": "brooklyn"
  },
  "F32": {
    "id": "F32",
    "name": "Bay Pkwy",
    "lat": 40.620769,
    "lon": -73.975264,
    "lines": ["F"],
    "northStopId": "F32N",
    "southStopId": "F32S",
    "transfers": [],
    "ada": false,
    "borough": "brooklyn",
    "complex": "C060"
  },
  "F33": {
    "id": "F33",
    "name": "Avenue N",
    "lat": 40.61514,
    "lon": -73.974197,
    "lines": ["F"],
    "northStopId": "F33N",
    "southStopId": "F33S",
    "transfers": [],
    "ada": false,
    "borough": "brooklyn"
  },
  "F34": {
    "id": "F34",
    "name": "Avenue P",
    "lat": 40.608944,
    "lon": -73.973022,
    "lines": ["F"],
    "northStopId": "F34N",
    "southStopId": "F34S",
    "transfers": [],
    "ada": false,
    "borough": "brooklyn"
  },
  "F35": {
    "id": "F35",
    "name": "Kings Hwy",
    "lat": 40.603217,
    "lon": -73.972361,
    "lines": ["F"],
    "northStopId": "F35N",
    "southStopId": "F35S",
    "transfers": [],
    "ada": false,
    "borough": "brooklyn",
    "complex": "C064"
  },
  "F36": {
    "id": "F36",
    "name": "Avenue U",
    "lat": 40.596063,
    "lon": -73.973357,
    "lines": ["F"],
    "northStopId": "F36N",
    "southStopId": "F36S",
    "transfers": [],
    "ada": true,
    "borough": "brooklyn",
    "complex": "C065"
  },
  "F38": {
    "id": "F38",
    "name": "Avenue X",
    "lat": 40.58962,
    "lon": -73.97425,
    "lines": ["F"],
    "northStopId": "F38N",
    "southStopId": "F38S",
    "transfers": [],
    "ada": false,
    "borough": "brooklyn"
  },
  "F39": {
    "id": "F39",
    "name": "Neptune Av",
    "lat": 40.581011,
    "lon": -73.974574,
    "lines": ["F"],
    "northStopId": "F39N",
    "southStopId": "F39S",
    "transfers": [],
    "ada": false,
    "borough": "brooklyn"
  },
  "G05": {
    "id": "G05",
    "name": "Jamaica Center-Parsons/Archer",
    "lat": 40.702147,
    "lon": -73.801109,
    "lines": ["E", "J", "Z"],
    "northStopId": "G05N",
    "southStopId": "G05S",
    "transfers": [],
    "ada": true,
    "borough": "queens"
  },
  "G06": {
    "id": "G06",
    "name": "Sutphin Blvd-Archer Av-JFK Airport",
    "lat": 40.700486,
    "lon": -73.807969,
    "lines": ["E", "J", "Z"],
    "northStopId": "G06N",
    "southStopId": "G06S",
    "transfers": [],
    "ada": false,
    "borough": "queens"
  },
  "G07": {
    "id": "G07",
    "name": "Jamaica-Van Wyck",
    "lat": 40.702566,
    "lon": -73.816859,
    "lines": ["E"],
    "northStopId": "G07N",
    "southStopId": "G07S",
    "transfers": [],
    "ada": false,
    "borough": "queens"
  },
  "G08": {
    "id": "G08",
    "name": "Forest Hills-71 Av",
    "lat": 40.721691,
    "lon": -73.844521,
    "lines": ["E", "F", "M", "R"],
    "northStopId": "G08N",
    "southStopId": "G08S",
    "transfers": [],
    "ada": true,
    "borough": "queens"
  },
  "G09": {
    "id": "G09",
    "name": "67 Av",
    "lat": 40.726523,
    "lon": -73.852719,
    "lines": ["E", "F", "M", "R"],
    "northStopId": "G09N",
    "southStopId": "G09S",
    "transfers": [],
    "ada": true,
    "borough": "queens"
  },
  "G10": {
    "id": "G10",
    "name": "63 Dr-Rego Park",
    "lat": 40.729846,
    "lon": -73.861604,
    "lines": ["E", "F", "M", "R"],
    "northStopId": "G10N",
    "southStopId": "G10S",
    "transfers": [],
    "ada": true,
    "borough": "queens"
  },
  "G11": {
    "id": "G11",
    "name": "Woodhaven Blvd",
    "lat": 40.733106,
    "lon": -73.869229,
    "lines": ["E", "F", "M", "R"],
    "northStopId": "G11N",
    "southStopId": "G11S",
    "transfers": [],
    "ada": true,
    "borough": "queens",
    "complex": "C068"
  },
  "G12": {
    "id": "G12",
    "name": "Grand Av-Newtown",
    "lat": 40.737015,
    "lon": -73.877223,
    "lines": ["E", "F", "M", "R"],
    "northStopId": "G12N",
    "southStopId": "G12S",
    "transfers": [],
    "ada": false,
    "borough": "queens"
  },
  "G13": {
    "id": "G13",
    "name": "Elmhurst Av",
    "lat": 40.742454,
    "lon": -73.882017,
    "lines": ["E", "F", "M", "R"],
    "northStopId": "G13N",
    "southStopId": "G13S",
    "transfers": [],
    "ada": false,
    "borough": "queens"
  },
  "G14": {
    "id": "G14",
    "name": "Jackson Hts-Roosevelt Av",
    "lat": 40.746644,
    "lon": -73.891338,
    "lines": ["E", "F", "M", "R"],
    "northStopId": "G14N",
    "southStopId": "G14S",
    "transfers": [
      {
        "toStationId": "710",
        "toLines": ["7", "7X"],
        "walkingSeconds": 180,
        "accessible": false
      }
    ],
    "ada": true,
    "borough": "queens"
  },
  "G15": {
    "id": "G15",
    "name": "65 St",
    "lat": 40.749669,
    "lon": -73.898453,
    "lines": ["E", "F", "M", "R"],
    "northStopId": "G15N",
    "southStopId": "G15S",
    "transfers": [],
    "ada": false,
    "borough": "queens"
  },
  "G16": {
    "id": "G16",
    "name": "Northern Blvd",
    "lat": 40.752885,
    "lon": -73.906006,
    "lines": ["E", "F", "M", "R"],
    "northStopId": "G16N",
    "southStopId": "G16S",
    "transfers": [],
    "ada": true,
    "borough": "queens"
  },
  "G18": {
    "id": "G18",
    "name": "46 St",
    "lat": 40.756312,
    "lon": -73.913333,
    "lines": ["E", "F", "M", "R"],
    "northStopId": "G18N",
    "southStopId": "G18S",
    "transfers": [],
    "ada": true,
    "borough": "queens"
  },